[
  {
    "name": "Aam Aadmi Mohalla Clinic, Malviya Nagar",
    "category": "health",
    "lat": 28.5355,
    "lng": 77.2065,
    "address": "G 4/1, Block G5, Malviya Nagar, New Delhi-110017",
    "hours": "Mon-Sat 8am-2pm",
    "contact": "",
    "description": "Free consultations, tests, and medicines at a government primary health centre."
  },
  {
    "name": "Aam Aadmi Mohalla Clinic, Janakpuri D-Block",
    "category": "health",
    "lat": 28.6219,
    "lng": 77.0878,
    "address": "Govt. Co-ed Sr. Sec. School, Janakpuri D-Block, New Delhi-110058",
    "hours": "Mon-Sat 8am-2pm",
    "contact": "",
    "description": "Free primary healthcare, diagnostics, and medicines."
  },
  {
    "name": "Aam Aadmi Mohalla Clinic, Dwarka Sector 14",
    "category": "health",
    "lat": 28.5765,
    "lng": 77.0402,
    "address": "Govt. Sr. Sec. School, Dwarka Sector 14, New Delhi-110078",
    "hours": "Mon-Sat 8am-2pm",
    "contact": "",
    "description": "Free primary healthcare, diagnostics, and medicines."
  },
  {
    "name": "Aam Aadmi Mohalla Clinic, Rohini Sector 18",
    "category": "health",
    "lat": 28.735,
    "lng": 77.125,
    "address": "Rohini Sector 18, New Delhi-110089",
    "hours": "Mon-Sat 8am-2pm",
    "contact": "",
    "description": "Free primary healthcare, diagnostics, and medicines."
  },
  {
    "name": "Indian Red Cross Society Blood Centre",
    "category": "health",
    "lat": 28.6259,
    "lng": 77.2183,
    "address": "1, Red Cross Road, New Delhi-110001",
    "hours": "Mon-Sat 9am-7pm (issue counter open 24/7)",
    "contact": "011-23711551",
    "description": "Free blood for government-hospital, thalassemia, and haemophilia patients."
  },
  {
    "name": "Lok Nayak Hospital Blood Bank",
    "category": "health",
    "lat": 28.6417,
    "lng": 77.2373,
    "address": "Jawaharlal Nehru Marg, New Delhi-110002",
    "hours": "24 hours",
    "contact": "011-23231023",
    "description": "Government hospital blood bank, regional blood transfusion centre."
  },
  {
    "name": "AIIMS Blood Bank",
    "category": "health",
    "lat": 28.5672,
    "lng": 77.21,
    "address": "Ansari Nagar, New Delhi-110029",
    "hours": "24 hours",
    "contact": "011-26594874",
    "description": "Government blood transfusion centre serving the AIIMS campus and referrals."
  },
  {
    "name": "SevaRoots Trust — Annamrita Kitchen",
    "category": "food",
    "lat": 28.6519,
    "lng": 77.1275,
    "address": "Ramesh Nagar, West Delhi-110015",
    "hours": "Daily 12pm-3pm",
    "contact": "",
    "description": "Free home-style meals for children, seniors, and anyone in need."
  },
  {
    "name": "Delhi Langar Seva Society",
    "category": "food",
    "lat": 28.568,
    "lng": 77.209,
    "address": "Outside AIIMS & Safdarjung Hospital OPD gates, New Delhi-110029",
    "hours": "Daily, lunch hours",
    "contact": "",
    "description": "Free meals for out-of-town patients and attendants outside major hospitals."
  },
  {
    "name": "Uday Foundation Meal Support",
    "category": "food",
    "lat": 28.5685,
    "lng": 77.202,
    "address": "Near Safdarjung Hospital, New Delhi-110029",
    "hours": "Daily",
    "contact": "",
    "description": "Free nutritious meals for underprivileged hospital patients and families."
  },
  {
    "name": "MCKS Food for the Hungry Foundation",
    "category": "food",
    "lat": 28.61,
    "lng": 77.23,
    "address": "Central Delhi-110002",
    "hours": "Varies by drive",
    "contact": "9873800500",
    "description": "Community kitchens and food-for-skills programs for the urban poor."
  },
  {
    "name": "Community Kitchen, Dwarka",
    "category": "food",
    "lat": 28.5921,
    "lng": 77.046,
    "address": "Dwarka, New Delhi-110075",
    "hours": "Daily",
    "contact": "",
    "description": "Free community kitchen and food distribution centre for local residents."
  },
  {
    "name": "Water ATM, Kirti Nagar Metro Station",
    "category": "water",
    "lat": 28.6535,
    "lng": 77.1467,
    "address": "5/35, Kirti Nagar, New Delhi-110015",
    "hours": "24 hours",
    "contact": "",
    "description": "RO-purified water dispensed via card at low cost (Rs. 0.30/litre)."
  },
  {
    "name": "Water ATM, Dwarka Sector 3",
    "category": "water",
    "lat": 28.5921,
    "lng": 77.059,
    "address": "Dwarka Sector 3, New Delhi-110078",
    "hours": "24 hours",
    "contact": "",
    "description": "Delhi Jal Board RO water ATM for the local settlement."
  },
  {
    "name": "RO Plant & Water ATM, Savda Ghevra",
    "category": "water",
    "lat": 28.755,
    "lng": 77.035,
    "address": "Savda Ghevra Resettlement Colony, New Delhi-110041",
    "hours": "24 hours",
    "contact": "",
    "description": "One of Delhi's first water ATM installations, serving resettlement colony residents."
  },
  {
    "name": "Water ATM, Khajan Basti, Mayapuri",
    "category": "water",
    "lat": 28.628,
    "lng": 77.123,
    "address": "Mayapuri Phase II, Khajan Basti, New Delhi-110064",
    "hours": "24 hours",
    "contact": "",
    "description": "Free/low-cost RO water via Water-ATM card, 20 litres/day per household."
  },
  {
    "name": "Water Kiosk, Aurobindo Marg (near AIIMS)",
    "category": "water",
    "lat": 28.5678,
    "lng": 77.2075,
    "address": "Aurobindo Marg, opp. Safdarjung Hospital, New Delhi-110029",
    "hours": "24 hours",
    "contact": "",
    "description": "Public water kiosk serving patients, attendants, and commuters."
  },
  {
    "name": "Water ATM, Holambi Kalan",
    "category": "water",
    "lat": 28.794,
    "lng": 77.118,
    "address": "Holambi Kalan, New Delhi-110082",
    "hours": "24 hours",
    "contact": "",
    "description": "Delhi Jal Board RO water ATM for underserved settlement."
  },
  {
    "name": "DUSIB Night Shelter, Chandni Chowk",
    "category": "shelter",
    "lat": 28.6505,
    "lng": 77.232,
    "address": "Gali Shankar, Behind Kalan Masjid, Turkman Gate, Chandni Chowk, Delhi-110006",
    "hours": "Open 24 hours",
    "contact": "1800-11-8090",
    "description": "Government-run night shelter for homeless individuals."
  },
  {
    "name": "Motia Khan Shelter (run by AAA)",
    "category": "shelter",
    "lat": 28.647,
    "lng": 77.202,
    "address": "63B, Rani Jhansi Rd, Motia Khan, Sadar Bazaar, New Delhi-110055",
    "hours": "Open 24 hours",
    "contact": "",
    "description": "Shelter and health program run by Aashray Adhikar Abhiyan for the homeless."
  },
  {
    "name": "Prerna Night Shelter, AIIMS",
    "category": "shelter",
    "lat": 28.5675,
    "lng": 77.2085,
    "address": "AIIMS Campus, Ansari Nagar, New Delhi-110029",
    "hours": "Open 24 hours",
    "contact": "",
    "description": "Shelter for homeless patients and attendants visiting AIIMS for treatment."
  },
  {
    "name": "DUSIB Night Shelter, Connaught Place",
    "category": "shelter",
    "lat": 28.626,
    "lng": 77.21,
    "address": "Near Bangla Saheb Gurudwara, DIZ Area, Connaught Place, New Delhi-110001",
    "hours": "Open 24 hours",
    "contact": "1800-11-8090",
    "description": "Government-run night shelter in central Delhi."
  },
  {
    "name": "Delhi Public Library — Central Library",
    "category": "education",
    "lat": 28.66,
    "lng": 77.228,
    "address": "S.P. Mukherjee Marg, opp. Old Delhi Railway Station, Delhi-110006",
    "hours": "Tue-Sun 9am-8pm",
    "contact": "",
    "description": "Free public library membership, books, and reading rooms."
  },
  {
    "name": "Delhi Public Library — North Zone",
    "category": "education",
    "lat": 28.6519,
    "lng": 77.1907,
    "address": "5/56, D.B. Gupta Road, Karol Bagh, New Delhi-110005",
    "hours": "Daily 12:30pm-7pm",
    "contact": "011-23521372",
    "description": "Free public library branch with reading rooms and lending."
  },
  {
    "name": "Delhi Public Library — Ashok Vihar Branch",
    "category": "education",
    "lat": 28.695,
    "lng": 77.183,
    "address": "Opp. Plot A-69, near Shree Ram Global School, Ashok Vihar, Delhi-110052",
    "hours": "Daily",
    "contact": "",
    "description": "Neighbourhood library branch, free membership."
  },
  {
    "name": "Salaam Baalak Trust — Contact Centre",
    "category": "education",
    "lat": 28.643,
    "lng": 77.221,
    "address": "Near New Delhi Railway Station, New Delhi-110001",
    "hours": "Mon-Sat 10am-5pm",
    "contact": "",
    "description": "Education, shelter, and support programs for street and working children."
  },
  {
    "name": "SK Children Foundation Learning Centre",
    "category": "education",
    "lat": 28.618,
    "lng": 77.085,
    "address": "Babewala Park, B-1 Block, Janakpuri, New Delhi-110058",
    "hours": "7 days/week, evening classes",
    "contact": "9999800689",
    "description": "Free tuition for underprivileged children, classes I-XII."
  },
  {
    "name": "Shanti Sahyog Learning Centre",
    "category": "education",
    "lat": 28.539,
    "lng": 77.26,
    "address": "Kalkaji / Govindpuri, New Delhi-110019",
    "hours": "Weekdays",
    "contact": "",
    "description": "Free education and skill-development programs for slum communities."
  },
  {
    "name": "Eduquest Tuition Centre, Rohini",
    "category": "education",
    "lat": 28.71,
    "lng": 77.12,
    "address": "Rohini, North-West Delhi-110085",
    "hours": "Weekdays, afternoon",
    "contact": "",
    "description": "Free tuition support and school-readiness programs for underserved children."
  },
  {
    "name": "Civil Hospital, Gurugram",
    "category": "health",
    "lat": 28.4771,
    "lng": 76.9975,
    "address": "Basai Road, Sector 10, Gurugram, Haryana 122001",
    "hours": "24 hours",
    "contact": "0124-2333102",
    "description": "200-bed government district hospital; free treatment under Mukhyamantri Muft Ilaz Yojana for Haryana residents."
  },
  {
    "name": "General Hospital Blood Bank, Gurugram",
    "category": "health",
    "lat": 28.4762,
    "lng": 76.9968,
    "address": "Near Bus Stand, Opposite MCG, Gurugram, Haryana 122001",
    "hours": "24 hours",
    "contact": "0124-2310102",
    "description": "Government blood bank attached to Gurugram's civil hospital network."
  },
  {
    "name": "Gurudwara Sri Guru Singh Sabha, South City",
    "category": "food",
    "lat": 28.436,
    "lng": 77.048,
    "address": "Near Unitech House, Block I, South City I, Sector 41, Gurugram, Haryana 122001",
    "hours": "Daily, langar hours vary",
    "contact": "",
    "description": "Free community kitchen (langar) open to all, regardless of faith."
  },
  {
    "name": "Gurudwara, Civil Lines",
    "category": "food",
    "lat": 28.468,
    "lng": 77.027,
    "address": "Opp. Kamla Nehru Park, Civil Lines, Gurugram, Haryana",
    "hours": "Daily, langar hours vary",
    "contact": "",
    "description": "One of Gurugram's oldest gurudwaras (50+ years); free community meals daily."
  },
  {
    "name": "MCG Night Shelter, Rajiv Chowk",
    "category": "shelter",
    "lat": 28.4645,
    "lng": 77.0313,
    "address": "Rajiv Chowk, Gurugram, Haryana",
    "hours": "Open overnight",
    "contact": "",
    "description": "Municipal Corporation of Gurugram (MCG) rain basera for the homeless."
  },
  {
    "name": "MCG Night Shelter, Sheetla Mata Mandir",
    "category": "shelter",
    "lat": 28.454,
    "lng": 77.018,
    "address": "Near Sheetla Mata Mandir, Gurugram, Haryana",
    "hours": "Open overnight",
    "contact": "",
    "description": "Municipal Corporation of Gurugram (MCG) rain basera for the homeless."
  },
  {
    "name": "The Coforge Public Library, Gurugram",
    "category": "education",
    "lat": 28.409,
    "lng": 77.048,
    "address": "Ground Floor, Bestech Business Center, Sohna Road, Sector 48, Gurugram, Haryana",
    "hours": "9am-8pm, 7 days a week",
    "contact": "",
    "description": "Free public library with 16,000+ books; open to all ages, wheelchair accessible."
  },
  {
    "name": "Sahitya Kendra Library",
    "category": "education",
    "lat": 28.469,
    "lng": 77.035,
    "address": "480/4, Acharyapuri, Gurugram District, Gurugram, Haryana 122001",
    "hours": "Daily",
    "contact": "",
    "description": "Long-standing community library serving Gurugram residents."
  },
  {
    "name": "District Combined Hospital, Sector 30, Noida",
    "category": "health",
    "lat": 28.573,
    "lng": 77.326,
    "address": "Sector 30, Noida, Gautam Buddh Nagar, Uttar Pradesh 201301",
    "hours": "24 hours",
    "contact": "",
    "description": "240-bed government multi-speciality hospital serving Noida residents."
  },
  {
    "name": "Gurudwara Sri Guru Singh Sabha, Sector 18",
    "category": "food",
    "lat": 28.57,
    "lng": 77.326,
    "address": "Near Wave Cinema, Sector 18, Noida, Uttar Pradesh",
    "hours": "Daily, langar hours vary",
    "contact": "",
    "description": "Free community kitchen (langar); also offers free music and turban-tying classes."
  },
  {
    "name": "Rain Basera, Noida Stadium",
    "category": "shelter",
    "lat": 28.5895,
    "lng": 77.3175,
    "address": "Near Gate 7, Noida Stadium, Sector 21A, Noida, Uttar Pradesh",
    "hours": "Open overnight, winter season",
    "contact": "",
    "description": "Noida Authority winter night shelter, capacity ~150, with drinking water and toilets."
  },
  {
    "name": "Water ATM, Sector 37, Noida",
    "category": "water",
    "lat": 28.556,
    "lng": 77.348,
    "address": "Sector 37, Noida, Uttar Pradesh",
    "hours": "8am-8pm",
    "contact": "",
    "description": "Noida Authority public water ATM offering clean, chilled drinking water."
  },
  {
    "name": "Water ATM, Sector 45, Noida",
    "category": "water",
    "lat": 28.549,
    "lng": 77.383,
    "address": "Sector 45, Noida, Uttar Pradesh",
    "hours": "8am-8pm",
    "contact": "",
    "description": "Noida Authority public water ATM offering clean, chilled drinking water."
  },
  {
    "name": "The Coforge Public Library, Noida",
    "category": "education",
    "lat": 28.592,
    "lng": 77.361,
    "address": "B-25/1-4, First Floor, Sector 59, Noida, Uttar Pradesh 201301",
    "hours": "9am-8pm, 7 days a week",
    "contact": "+91 9311861889",
    "description": "Free public library, 10,000+ books, digital access, open to all ages."
  },
  {
    "name": "MMG District Hospital, Ghaziabad",
    "category": "health",
    "lat": 28.669,
    "lng": 77.426,
    "address": "Near Ghanta Ghar, G.T. Road, Ghaziabad, Uttar Pradesh 201001",
    "hours": "24 hours",
    "contact": "0120-2730038",
    "description": "Government district hospital serving Ghaziabad."
  },
  {
    "name": "District Combined Hospital, Sanjay Nagar",
    "category": "health",
    "lat": 28.689,
    "lng": 77.452,
    "address": "Sector 23, Rajnagar, Sanjay Nagar, Ghaziabad, Uttar Pradesh 201020",
    "hours": "24 hours",
    "contact": "0120-2790400",
    "description": "Government combined hospital serving Ghaziabad residents."
  },
  {
    "name": "Ghaziabad Blood Bank, Maliwara Chowk",
    "category": "health",
    "lat": 28.667,
    "lng": 77.431,
    "address": "Maliwara Chowk, Ghaziabad, Uttar Pradesh",
    "hours": "24 hours",
    "contact": "0120-2794762",
    "description": "Public blood bank serving Ghaziabad district."
  },
  {
    "name": "Gurudwara Guru Nanak Simran Sabha",
    "category": "food",
    "lat": 28.675,
    "lng": 77.438,
    "address": "Bhoor Bharat Nagar, Ghaziabad, Uttar Pradesh",
    "hours": "Daily, langar hours vary",
    "contact": "",
    "description": "One of Ghaziabad's oldest gurudwaras; free community kitchen open to all."
  },
  {
    "name": "B.K. Hospital, Faridabad",
    "category": "health",
    "lat": 28.386,
    "lng": 77.308,
    "address": "Opp. Dusshera Ground, BK Chowk, Faridabad, Haryana 121001",
    "hours": "24 hours",
    "contact": "",
    "description": "Government hospital serving Faridabad district."
  },
  {
    "name": "Civil Hospital, Ballabgarh",
    "category": "health",
    "lat": 28.339,
    "lng": 77.326,
    "address": "Hospital Road, Near City Park, Ballabgarh, Faridabad, Haryana",
    "hours": "24 hours",
    "contact": "0129-2210379",
    "description": "Government hospital serving Ballabgarh and southern Faridabad."
  },
  {
    "name": "Gurudwara Singh Sabha, Faridabad",
    "category": "food",
    "lat": 28.401,
    "lng": 77.3041,
    "address": "Sector area, Faridabad, Haryana",
    "hours": "Daily, langar hours vary",
    "contact": "",
    "description": "Free community kitchen (langar) open to all."
  },
  {
    "name": "Gurudwara, Sector 29, Faridabad",
    "category": "food",
    "lat": 28.4344,
    "lng": 77.3241,
    "address": "Sector 29, Faridabad, Haryana",
    "hours": "Daily, langar hours vary",
    "contact": "",
    "description": "Neighbourhood gurudwara offering free community meals."
  },
  {
    "name": "Khetwadi Municipal Health Post",
    "category": "health",
    "lat": 18.9584,
    "lng": 72.8156,
    "address": "Near Alankar Cinema, Khetwadi, Mumbai-400004",
    "hours": "Mon-Sat, OPD hours",
    "contact": "",
    "description": "BMC municipal dispensary providing free basic healthcare."
  },
  {
    "name": "Ambewadi Dispensary",
    "category": "health",
    "lat": 18.9865,
    "lng": 72.834,
    "address": "G. D. Ambekar Marg, Kalachowky, Mumbai-400033",
    "hours": "Mon-Sat, OPD hours",
    "contact": "",
    "description": "BMC municipal dispensary."
  },
  {
    "name": "Sewri Cross Road Dispensary",
    "category": "health",
    "lat": 18.9993,
    "lng": 72.858,
    "address": "Opp. Old Post Office, Sewree Cross Road, Mumbai-400015",
    "hours": "Mon-Sat, OPD hours",
    "contact": "",
    "description": "BMC municipal dispensary."
  },
  {
    "name": "Worli Koliwada Municipal Dispensary",
    "category": "health",
    "lat": 19.0033,
    "lng": 72.8166,
    "address": "Kalyan Kendra, Kesarinath Bua Bhaye Marg, Worli Koliwada, Mumbai-400030",
    "hours": "Mon-Sat, OPD hours",
    "contact": "",
    "description": "BMC municipal dispensary serving the fishing community."
  },
  {
    "name": "J.J. Hospital Dispensary",
    "category": "health",
    "lat": 18.9647,
    "lng": 72.8322,
    "address": "J.J. Hospital Campus, Byculla, Mumbai-400008",
    "hours": "24 hours (dispensary hours vary)",
    "contact": "022-23735555",
    "description": "Government hospital dispensary, part of Sir J.J. Hospital."
  },
  {
    "name": "Topiwala Municipal Maternity Home",
    "category": "health",
    "lat": 19.1663,
    "lng": 72.8494,
    "address": "Station Road, Goregaon West, Mumbai-400062",
    "hours": "24 hours",
    "contact": "",
    "description": "BMC municipal maternity home and health post."
  },
  {
    "name": "Sri Guru Singh Sabha Gurudwara, Bandra-Khar",
    "category": "food",
    "lat": 19.0728,
    "lng": 72.837,
    "address": "590, 3rd Rd, Ram Krishna Nagar, Khar West, Mumbai-400052",
    "hours": "Daily langar",
    "contact": "",
    "description": "Mumbai's oldest gurudwara; serves free meals to 300+ people daily regardless of background."
  },
  {
    "name": "Guru Nanak Punjabi Darbar Gurudwara",
    "category": "food",
    "lat": 19.0728,
    "lng": 72.8826,
    "address": "L.B.S. Road (CST Road), Kurla, Mumbai",
    "hours": "Daily langar",
    "contact": "",
    "description": "Largest gurudwara in Kurla; free langar and tea daily."
  },
  {
    "name": "Dadar Gurudwara (Shri Guru Singh Sabha)",
    "category": "food",
    "lat": 19.0183,
    "lng": 72.8479,
    "address": "Dr Babasaheb Ambedkar Rd, Opp. Chitra Cinema, Dadar East, Mumbai-400014",
    "hours": "Langar served from 1:30pm",
    "contact": "",
    "description": "One of Mumbai's oldest gurudwaras; also offers low-cost lodging."
  },
  {
    "name": "Khetwadi Shelter (run by Prerana)",
    "category": "shelter",
    "lat": 18.9584,
    "lng": 72.8156,
    "address": "Khetwadi Municipal School, Near Alankar Cinema, Mumbai",
    "hours": "Open overnight",
    "contact": "",
    "description": "Shelter for urban homeless, capacity ~70, run by NGO Prerana under MCGM."
  },
  {
    "name": "Kamathipura Shelter (run by Prerana)",
    "category": "shelter",
    "lat": 18.9647,
    "lng": 72.8258,
    "address": "Kamathipura 14th Lane, Byculla, Mumbai",
    "hours": "Open overnight",
    "contact": "",
    "description": "Shelter for urban homeless, capacity ~30, run by NGO Prerana under MCGM."
  },
  {
    "name": "Wankhede Stadium Shelter (run by SPARC)",
    "category": "shelter",
    "lat": 18.9389,
    "lng": 72.8258,
    "address": "Under Foot-over-bridge, Wankhede Stadium, Mumbai",
    "hours": "Open overnight",
    "contact": "",
    "description": "Shelter for urban homeless, capacity ~70, run by NGO SPARC under MCGM."
  },
  {
    "name": "Bandra Dharamshala Shelter",
    "category": "shelter",
    "lat": 19.0544,
    "lng": 72.8402,
    "address": "Station Road, Opp. Bandra Bus Depot, Bandra West, Mumbai-400050",
    "hours": "Open overnight",
    "contact": "",
    "description": "MCGM-registered shelter for the urban homeless."
  },
  {
    "name": "People's Free Reading Room and Library",
    "category": "education",
    "lat": 18.9457,
    "lng": 72.8236,
    "address": "1st Floor, 19, M.G. Road, Marine Lines, Mumbai-400020",
    "hours": "Mon-Sat 8am-9pm, Sun 8am-4pm",
    "contact": "",
    "description": "Free reading room access since 1845; one of Mumbai's few genuinely free public libraries."
  },
  {
    "name": "David Sassoon Library (reading room)",
    "category": "education",
    "lat": 18.9296,
    "lng": 72.8347,
    "address": "152, Mahatma Gandhi Road, Fort, Kala Ghoda, Mumbai-400001",
    "hours": "Mon-Sat 10:30am-6:30pm",
    "contact": "022-22843703",
    "description": "Historic library (est. 1870); day visitors can browse and read on-site."
  },
  {
    "name": "BMC Borivali Library",
    "category": "education",
    "lat": 19.2307,
    "lng": 72.8567,
    "address": "Opp. Hyundai, Rajan Nagar, Near Apex Hospital, Borivali East, Mumbai-400066",
    "hours": "Mon-Sat",
    "contact": "",
    "description": "Free public library run by BMC."
  },
  {
    "name": "BMC Garden Library, Dadar",
    "category": "education",
    "lat": 19.0176,
    "lng": 72.8478,
    "address": "B.N. Vaidya Garden, Hindu Colony, Dadar, Mumbai",
    "hours": "Daily",
    "contact": "",
    "description": "Free open-air garden library for children, funded via CSR."
  },
  {
    "name": "A.D. Halli Health Centre",
    "category": "health",
    "lat": 12.9915,
    "lng": 77.534,
    "address": "#4, 17th Cross, 4th Stage, 3rd Block, Basaveshwaranagar, Bangalore-79",
    "hours": "Mon-Sat, OPD hours",
    "contact": "22975671",
    "description": "BBMP health centre providing free basic healthcare."
  },
  {
    "name": "Anjanappa Garden Health Centre",
    "category": "health",
    "lat": 12.9698,
    "lng": 77.5654,
    "address": "Near Balemandi, Binnypet, Bangalore",
    "hours": "Mon-Sat, OPD hours",
    "contact": "22975680",
    "description": "BBMP health centre."
  },
  {
    "name": "Audugodi Health Centre",
    "category": "health",
    "lat": 12.9498,
    "lng": 77.6088,
    "address": "Koramangala Road, Bangalore-30",
    "hours": "Mon-Sat, OPD hours",
    "contact": "22975870",
    "description": "BBMP health centre."
  },
  {
    "name": "Bapujinagar Health Centre",
    "category": "health",
    "lat": 12.9569,
    "lng": 77.5535,
    "address": "2nd Main Road, Mysore Road, Bangalore-26",
    "hours": "Mon-Sat, OPD hours",
    "contact": "22975793",
    "description": "BBMP health centre."
  },
  {
    "name": "PHC Amruthahalli (Namma Clinic)",
    "category": "health",
    "lat": 13.0631,
    "lng": 77.5946,
    "address": "Sahakar Nagar Post, Bangalore North Taluk, Bangalore-92",
    "hours": "Mon-Sat, OPD hours",
    "contact": "9480216164",
    "description": "Primary health centre, part of Karnataka's Namma Clinic network (launched 2023)."
  },
  {
    "name": "Avalahalli Health Centre",
    "category": "health",
    "lat": 13.045,
    "lng": 77.635,
    "address": "17th Main, Muneshwara Block, Avalahalli, Bangalore-85",
    "hours": "Mon-Sat, OPD hours",
    "contact": "22975782",
    "description": "BBMP health centre."
  },
  {
    "name": "PHC Hegganahalli",
    "category": "health",
    "lat": 13.028,
    "lng": 77.521,
    "address": "Peenya 2nd Stage Main Road, Bangalore-91",
    "hours": "Mon-Sat, OPD hours",
    "contact": "9739881851",
    "description": "Primary health centre serving Peenya industrial area."
  },
  {
    "name": "Bangalore Gurdwara Sri Guru Singh Sabha",
    "category": "food",
    "lat": 12.9815,
    "lng": 77.6218,
    "address": "Ulsoor, Bangalore",
    "hours": "Daily langar",
    "contact": "",
    "description": "The largest Sikh gurudwara in Bangalore; free community meals daily."
  },
  {
    "name": "BBMP Night Shelter, Goods Shed Road",
    "category": "shelter",
    "lat": 12.9767,
    "lng": 77.5713,
    "address": "Office of Revenue Officers Building, Goods Shed Road, Bengaluru-560023",
    "hours": "Open overnight",
    "contact": "",
    "description": "BBMP-run night shelter for the urban homeless."
  },
  {
    "name": "BBMP Namma Mane Shelter",
    "category": "shelter",
    "lat": 12.9791,
    "lng": 77.6198,
    "address": "SSM Road, Murphy Town, near Halasuru, Bengaluru",
    "hours": "Open overnight",
    "contact": "",
    "description": "Destitute night shelter home run by BBMP."
  },
  {
    "name": "BBMP Shelter, South Kumbaragundi",
    "category": "shelter",
    "lat": 12.9666,
    "lng": 77.5813,
    "address": "SP Road, Bengaluru",
    "hours": "Open overnight",
    "contact": "",
    "description": "Day-NULM urban homeless shelter."
  },
  {
    "name": "State Central Library, Cubbon Park",
    "category": "education",
    "lat": 12.9763,
    "lng": 77.5929,
    "address": "Cubbon Park, Bengaluru-560001",
    "hours": "Daily",
    "contact": "",
    "description": "Free public reading room, one of Bangalore's oldest libraries."
  },
  {
    "name": "City Central Library, Jayanagar",
    "category": "education",
    "lat": 12.925,
    "lng": 77.5938,
    "address": "Jayanagar South, Bengaluru-560041",
    "hours": "Daily",
    "contact": "26548829",
    "description": "Public library branch."
  },
  {
    "name": "The Little Free Library, Koramangala",
    "category": "education",
    "lat": 12.9352,
    "lng": 77.6245,
    "address": "Om Pure Veg, Koramangala, Bengaluru",
    "hours": "During restaurant hours",
    "contact": "",
    "description": "Take a book, leave a book — free community book exchange."
  },
  {
    "name": "Choolai UPHC",
    "category": "health",
    "lat": 13.0921,
    "lng": 80.2707,
    "address": "No.23, V.V. Koil St, Choolai, Chennai-112",
    "hours": "Mon-Sat, OPD hours",
    "contact": "",
    "description": "Greater Chennai Corporation Urban Primary Health Centre."
  },
  {
    "name": "Royapettah UPHC",
    "category": "health",
    "lat": 13.0558,
    "lng": 80.2645,
    "address": "35, Ammaiappan Lane, Royapettah, Chennai-14",
    "hours": "Mon-Sat, OPD hours",
    "contact": "",
    "description": "Greater Chennai Corporation Urban Primary Health Centre."
  },
  {
    "name": "Mylapore UPHC",
    "category": "health",
    "lat": 13.0339,
    "lng": 80.2685,
    "address": "22, Mundakanniaman Koil St, Mylapore, Chennai-4",
    "hours": "Mon-Sat, OPD hours",
    "contact": "",
    "description": "Greater Chennai Corporation Urban Primary Health Centre."
  },
  {
    "name": "Kilpauk Health Post",
    "category": "health",
    "lat": 13.0797,
    "lng": 80.2418,
    "address": "Temple St, New Avadi Road, Kilpauk, Chennai-10",
    "hours": "Mon-Sat, OPD hours",
    "contact": "",
    "description": "Greater Chennai Corporation health post."
  },
  {
    "name": "Saidapet UPHC",
    "category": "health",
    "lat": 13.0208,
    "lng": 80.2226,
    "address": "51, Jones Road, Saidapet, Chennai-15",
    "hours": "Mon-Sat, OPD hours",
    "contact": "",
    "description": "Greater Chennai Corporation Urban Primary Health Centre."
  },
  {
    "name": "Mandaveli UPHC",
    "category": "health",
    "lat": 13.03,
    "lng": 80.268,
    "address": "10, Velayutham Raja St, Mandaveli, Chennai-28",
    "hours": "Mon-Sat, OPD hours",
    "contact": "",
    "description": "Greater Chennai Corporation Urban Primary Health Centre."
  },
  {
    "name": "Ayanavaram UPHC",
    "category": "health",
    "lat": 13.101,
    "lng": 80.232,
    "address": "United India Colony, Ayanavaram, Chennai-23",
    "hours": "Mon-Sat, OPD hours",
    "contact": "",
    "description": "Greater Chennai Corporation Urban Primary Health Centre."
  },
  {
    "name": "Amma Unavagam, Ennore",
    "category": "food",
    "lat": 13.2247,
    "lng": 80.3208,
    "address": "J.J. Nagar, Kathivakkam High Road, Ennore, Chennai",
    "hours": "Breakfast, lunch, dinner hours",
    "contact": "",
    "description": "Government-run subsidised canteen: idli ₹1, sambar rice ₹5."
  },
  {
    "name": "Amma Unavagam, Tondiarpet",
    "category": "food",
    "lat": 13.1282,
    "lng": 80.2909,
    "address": "187, CDH Campus, T.H Road, Tondiarpet, Chennai-81",
    "hours": "Breakfast, lunch, dinner hours",
    "contact": "",
    "description": "Government-run subsidised canteen."
  },
  {
    "name": "Amma Unavagam, Kodungaiyur",
    "category": "food",
    "lat": 13.1264,
    "lng": 80.2722,
    "address": "Anna Street, Annai Sathya Nagar, Kodungaiyur, Chennai-118",
    "hours": "Breakfast, lunch, dinner hours",
    "contact": "",
    "description": "Government-run subsidised canteen."
  },
  {
    "name": "Amma Unavagam, George Town",
    "category": "food",
    "lat": 13.095,
    "lng": 80.287,
    "address": "37, Nattu Pillaiyar Koil Street, Seven Wells, George Town, Chennai-01",
    "hours": "Breakfast, lunch, dinner hours",
    "contact": "",
    "description": "Government-run subsidised canteen."
  },
  {
    "name": "Amma Unavagam, Kotturpuram",
    "category": "food",
    "lat": 13.027,
    "lng": 80.244,
    "address": "Kotturpuram 2nd Main Road, Kotturpuram, Chennai-85",
    "hours": "Breakfast, lunch, dinner hours",
    "contact": "",
    "description": "Government-run subsidised canteen."
  },
  {
    "name": "Anna Centenary Library",
    "category": "education",
    "lat": 13.027,
    "lng": 80.244,
    "address": "Kotturpuram, Chennai-600085",
    "hours": "Tue-Sun 9am-8pm",
    "contact": "",
    "description": "South Asia's largest library building; free to visit, does not lend but allows on-site reading for all ages."
  },
  {
    "name": "KMC Urban Primary Health Centre, Ultadanga",
    "category": "health",
    "lat": 22.5958,
    "lng": 88.3947,
    "address": "137, Ultadanga Main Road, Telenga Bagan, Kolkata-700067",
    "hours": "Mon-Sat, OPD hours",
    "contact": "",
    "description": "Kolkata Municipal Corporation free primary health centre."
  },
  {
    "name": "KMC Urban Primary Health Centre, Tala",
    "category": "health",
    "lat": 22.606,
    "lng": 88.369,
    "address": "Near Tala P.S., Kolkata-700002",
    "hours": "Mon-Sat, OPD hours",
    "contact": "",
    "description": "Kolkata Municipal Corporation free primary health centre."
  },
  {
    "name": "KMC Urban Primary Health Centre, Garden Reach",
    "category": "health",
    "lat": 22.535,
    "lng": 88.299,
    "address": "Majdoor Lane, Garden Reach, Kolkata-700024",
    "hours": "Mon-Sat, OPD hours",
    "contact": "",
    "description": "Kolkata Municipal Corporation free primary health centre."
  },
  {
    "name": "Nirmal Hriday (Missionaries of Charity)",
    "category": "shelter",
    "lat": 22.5193,
    "lng": 88.3426,
    "address": "54A, AJC Bose Road, Kolkata-700016",
    "hours": "8:30-11:30am, 3-5pm (except Thu)",
    "contact": "",
    "description": "Home for the destitute and dying founded by Mother Teresa in 1952; provides shelter, food, and basic care to anyone in need."
  },
  {
    "name": "Gurdwara Bara Sikh Sangat",
    "category": "food",
    "lat": 22.5726,
    "lng": 88.3639,
    "address": "Kolkata, West Bengal",
    "hours": "Daily langar",
    "contact": "",
    "description": "Historic gurudwara linked to Guru Nanak's visit; 24-hour langar tradition."
  },
  {
    "name": "Gurudwara Jagat Sudhar",
    "category": "food",
    "lat": 22.5193,
    "lng": 88.3426,
    "address": "Kalighat, Kolkata",
    "hours": "9:30am-6:30pm, langar served daily",
    "contact": "",
    "description": "Sikh gurudwara in Kalighat offering free community meals."
  },
  {
    "name": "National Library of India",
    "category": "education",
    "lat": 22.5352,
    "lng": 88.3323,
    "address": "Belvedere Road, Block A, Alipore, Kolkata-700027",
    "hours": "Mon-Fri 9am-8pm, Sat-Sun 9:30am-6pm",
    "contact": "",
    "description": "India's largest library by volume; free entry, on-site reading for all."
  },
  {
    "name": "Basthi Dawakhana, Hashimabad",
    "category": "health",
    "lat": 17.354,
    "lng": 78.4867,
    "address": "Hashimabad, Hyderabad, Telangana",
    "hours": "Mon-Sat 9am-4pm",
    "contact": "",
    "description": "GHMC free community clinic modeled on Delhi's Mohalla Clinics."
  },
  {
    "name": "Basthi Dawakhana, Bakaram",
    "category": "health",
    "lat": 17.378,
    "lng": 78.493,
    "address": "Bakaram, Hyderabad, Telangana",
    "hours": "Mon-Sat 9am-4pm",
    "contact": "",
    "description": "GHMC free community clinic."
  },
  {
    "name": "Basthi Dawakhana, Arundathi Nagar",
    "category": "health",
    "lat": 17.42,
    "lng": 78.535,
    "address": "Arundathi Nagar, Hyderabad, Telangana",
    "hours": "Mon-Sat 9am-4pm",
    "contact": "",
    "description": "GHMC free community clinic."
  },
  {
    "name": "Basthi Dawakhana, BJR Nagar",
    "category": "health",
    "lat": 17.453,
    "lng": 78.515,
    "address": "Babu Jagjivan Ram Nagar, Malkajgiri, Hyderabad, Telangana",
    "hours": "Mon-Sat 9am-4pm",
    "contact": "",
    "description": "GHMC free community clinic; one of the first 17 launched in 2018."
  },
  {
    "name": "Basthi Dawakhana, Gaddiannaram",
    "category": "health",
    "lat": 17.354,
    "lng": 78.533,
    "address": "Gaddiannaram, Hyderabad, Telangana",
    "hours": "Mon-Sat 9am-4pm",
    "contact": "",
    "description": "GHMC free community clinic."
  },
  {
    "name": "Basthi Dawakhana, Errakunta",
    "category": "health",
    "lat": 17.39,
    "lng": 78.555,
    "address": "Errakunta, Hyderabad, Telangana",
    "hours": "Mon-Sat 9am-4pm",
    "contact": "",
    "description": "GHMC free community clinic."
  },
  {
    "name": "Basthi Dawakhana, Chacha Nehru Nagar",
    "category": "health",
    "lat": 17.37,
    "lng": 78.51,
    "address": "Chacha Nehru Nagar, Hyderabad, Telangana",
    "hours": "Mon-Sat 9am-4pm",
    "contact": "",
    "description": "GHMC free community clinic."
  },
  {
    "name": "GHMC Shelter Home, Begumpet",
    "category": "shelter",
    "lat": 17.44,
    "lng": 78.465,
    "address": "Begumpet, Hyderabad, Telangana",
    "hours": "Open overnight",
    "contact": "",
    "description": "GHMC-run shelter for the homeless; one of 13-15 such homes in the city."
  },
  {
    "name": "Gurudwara Sahib Secunderabad",
    "category": "food",
    "lat": 17.4399,
    "lng": 78.4983,
    "address": "Secunderabad, Telangana",
    "hours": "Daily langar",
    "contact": "",
    "description": "Sikh gurudwara offering free community meals to all."
  },
  {
    "name": "State Central Library (Asafia Library)",
    "category": "education",
    "lat": 17.3753,
    "lng": 78.4744,
    "address": "Afzalgunj, Hyderabad, Telangana-500012",
    "hours": "Daily",
    "contact": "9700744295",
    "description": "Historic state library (est. 1891), heritage building, free public access."
  },
  {
    "name": "City Central Library, Chikkadpally",
    "category": "education",
    "lat": 17.4,
    "lng": 78.495,
    "address": "Chikkadpally, Hyderabad, Telangana",
    "hours": "Daily",
    "contact": "",
    "description": "Public library branch established 1960."
  },
  {
    "name": "Sassoon General Hospital / B.J. Medical College",
    "category": "health",
    "lat": 18.53,
    "lng": 73.852,
    "address": "Shivajinagar, Pune, Maharashtra-411001",
    "hours": "24 hours",
    "contact": "",
    "description": "Major government hospital and teaching institution, free/subsidised care."
  },
  {
    "name": "New Thergaon Hospital (PCMC)",
    "category": "health",
    "lat": 18.605,
    "lng": 73.765,
    "address": "Thergaon, Pune, Maharashtra",
    "hours": "24 hours",
    "contact": "",
    "description": "Pimpri Chinchwad Municipal Corporation hospital, free treatment for lower-income patients."
  },
  {
    "name": "Yashwantrao Chavan Memorial Hospital (YCMH)",
    "category": "health",
    "lat": 18.6298,
    "lng": 73.7997,
    "address": "Pimpri, Pune, Maharashtra-411018",
    "hours": "24 hours",
    "contact": "",
    "description": "PCMC government hospital serving Pimpri-Chinchwad."
  },
  {
    "name": "Shri Guru Singh Sabha Gurudwara, Ganesh Peth",
    "category": "food",
    "lat": 18.515,
    "lng": 73.856,
    "address": "Ganesh Peth, Pune, Maharashtra",
    "hours": "Weekly langar, Sunday mornings",
    "contact": "",
    "description": "Pune's oldest gurudwara; weekly community langar for all."
  },
  {
    "name": "Gurudwara Guru Nanak Darbar",
    "category": "food",
    "lat": 18.5304,
    "lng": 73.874,
    "address": "Pattinson Road, Pune, Maharashtra",
    "hours": "Daily langar, 6:30am-9pm",
    "contact": "",
    "description": "Large gurudwara complex with community kitchen, charitable hospital, and school."
  },
  {
    "name": "Majha Ghar Foundation Shelter",
    "category": "shelter",
    "lat": 18.5204,
    "lng": 73.8567,
    "address": "Pune, Maharashtra",
    "hours": "Open overnight",
    "contact": "",
    "description": "NGO-run homeless shelter providing food, shelter, and rehabilitation support."
  },
  {
    "name": "Dharavi Municipal Dispensary",
    "category": "health",
    "lat": 19.041,
    "lng": 72.857,
    "address": "Main Road, Dharavi, Mumbai-400017",
    "hours": "Mon-Sat, OPD hours",
    "contact": "",
    "description": "BMC municipal dispensary serving Dharavi."
  },
  {
    "name": "Old Khar Municipal Dispensary",
    "category": "health",
    "lat": 19.0728,
    "lng": 72.837,
    "address": "S.V. Road, Khar West, Mumbai-400052",
    "hours": "Mon-Sat, OPD hours",
    "contact": "",
    "description": "BMC municipal dispensary."
  },
  {
    "name": "M M Munshi Khar TB Clinic",
    "category": "health",
    "lat": 19.07,
    "lng": 72.835,
    "address": "S.V. Road, Khar West, Mumbai-400050",
    "hours": "Mon-Sat, OPD hours",
    "contact": "",
    "description": "BMC TB clinic offering free diagnosis and treatment."
  },
  {
    "name": "Sambhaji Nagar Municipal Dispensary, Andheri",
    "category": "health",
    "lat": 19.1197,
    "lng": 72.8697,
    "address": "Shahaji Raje Marg, Opp. Thakkar Bakery, Sambhaji Nagar, Andheri East, Mumbai",
    "hours": "Mon-Sat, OPD hours",
    "contact": "",
    "description": "BMC municipal dispensary."
  },
  {
    "name": "Sahar Road Dispensary, Andheri",
    "category": "health",
    "lat": 19.1075,
    "lng": 72.8686,
    "address": "Sahar Road, Opp. Garware, Andheri East, Mumbai-400069",
    "hours": "Mon-Sat, OPD hours",
    "contact": "",
    "description": "BMC municipal dispensary."
  },
  {
    "name": "Caves Road Municipal Dispensary, Jogeshwari",
    "category": "health",
    "lat": 19.1364,
    "lng": 72.8497,
    "address": "Caves Road, Squatters Colony Maternity Home, Jogeshwari East, Mumbai",
    "hours": "Mon-Sat, OPD hours",
    "contact": "",
    "description": "BMC municipal dispensary and maternity home."
  },
  {
    "name": "Deonar Municipal Colony Dispensary",
    "category": "health",
    "lat": 19.05,
    "lng": 72.92,
    "address": "Deonar Municipal Colony, Deonar, Govandi, Mumbai-400043",
    "hours": "Mon-Sat, OPD hours",
    "contact": "",
    "description": "BMC municipal dispensary."
  },
  {
    "name": "Chembur Naka Maternity Home",
    "category": "health",
    "lat": 19.0522,
    "lng": 72.8994,
    "address": "Chembur Naka, Chembur, Mumbai",
    "hours": "24 hours",
    "contact": "",
    "description": "BMC municipal maternity home."
  },
  {
    "name": "Parsiwadi Health Post, Ghatkopar",
    "category": "health",
    "lat": 19.0864,
    "lng": 72.9081,
    "address": "Near Ganesh Maidan, Opp. Ghatkopar West, Mumbai-400086",
    "hours": "Mon-Sat, OPD hours",
    "contact": "",
    "description": "BMC municipal health post."
  },
  {
    "name": "Chincholi Dispensary & Dental Clinic, Goregaon",
    "category": "health",
    "lat": 19.1653,
    "lng": 72.8493,
    "address": "Chincholi, Squatters Colony, Goregaon East, Mumbai",
    "hours": "Mon-Sat, OPD hours",
    "contact": "",
    "description": "BMC municipal dispensary with dental services."
  },
  {
    "name": "Malad Somwar Bazar Dispensary",
    "category": "health",
    "lat": 19.1864,
    "lng": 72.8489,
    "address": "S.V. Road, Somwar Bazar, Malad West, Mumbai",
    "hours": "Mon-Sat, OPD hours",
    "contact": "",
    "description": "BMC municipal dispensary."
  },
  {
    "name": "Malwani Dispensary, Malad",
    "category": "health",
    "lat": 19.199,
    "lng": 72.818,
    "address": "Gate No. 5, Malwani, Malad West, Mumbai",
    "hours": "Mon-Sat, OPD hours",
    "contact": "",
    "description": "BMC municipal dispensary serving Malwani settlement."
  },
  {
    "name": "Charkop Sector 1 Dispensary, Kandivali",
    "category": "health",
    "lat": 19.2094,
    "lng": 72.8339,
    "address": "Sahyadri Nagar, Charkop Sector 1, Kandivali West, Mumbai",
    "hours": "Mon-Sat, OPD hours",
    "contact": "",
    "description": "BMC municipal dispensary."
  },
  {
    "name": "M.H.B. Municipal Dispensary, Borivali",
    "category": "health",
    "lat": 19.235,
    "lng": 72.85,
    "address": "Near Datta Mandir, Old M.H.B., Gorai Road, Borivali West, Mumbai",
    "hours": "Mon-Sat, OPD hours",
    "contact": "",
    "description": "BMC municipal dispensary."
  },
  {
    "name": "Y.R. Tawde Municipal Dispensary, Dahisar",
    "category": "health",
    "lat": 19.2494,
    "lng": 72.8594,
    "address": "Dahisar East, Mumbai",
    "hours": "Mon-Sat, OPD hours",
    "contact": "",
    "description": "BMC municipal dispensary."
  },
  {
    "name": "Bagalur Health Centre",
    "category": "health",
    "lat": 13.098,
    "lng": 77.636,
    "address": "Old Bagalur Layout, Bangalore",
    "hours": "Mon-Sat, OPD hours",
    "contact": "22975885",
    "description": "BBMP health centre."
  },
  {
    "name": "PHC Atturu",
    "category": "health",
    "lat": 13.071,
    "lng": 77.598,
    "address": "Atturu Layout, Opp. Ambabavani Temple Road, Bangalore-64",
    "hours": "Mon-Sat, OPD hours",
    "contact": "9448236208",
    "description": "Primary health centre."
  },
  {
    "name": "PHC Laggere",
    "category": "health",
    "lat": 13.027,
    "lng": 77.522,
    "address": "Muneshwara Badavane, Peenya Post, Bangalore",
    "hours": "Mon-Sat, OPD hours",
    "contact": "",
    "description": "Primary health centre serving Laggere."
  },
  {
    "name": "Cox Town Dispensary",
    "category": "health",
    "lat": 12.995,
    "lng": 77.618,
    "address": "Ward No. 59, Park Road, Jeevanahalli, Bangalore",
    "hours": "Mon-Sat, OPD hours",
    "contact": "",
    "description": "BBMP dispensary."
  },
  {
    "name": "Sanjayanagar Dispensary",
    "category": "health",
    "lat": 13.053,
    "lng": 77.581,
    "address": "3rd Main Road, Sanjay Nagar, Bangalore-560094",
    "hours": "Mon-Sat, OPD hours",
    "contact": "",
    "description": "BBMP public health centre."
  },
  {
    "name": "PHC M.S. Palya",
    "category": "health",
    "lat": 13.043,
    "lng": 77.549,
    "address": "M.S. Palya, Bangalore",
    "hours": "Mon-Sat, OPD hours",
    "contact": "",
    "description": "Primary health centre."
  },
  {
    "name": "Kuppam UPHC",
    "category": "health",
    "lat": 13.201,
    "lng": 80.296,
    "address": "No.1, School Street, Jothi Nagar, Chennai-19",
    "hours": "Mon-Sat, OPD hours",
    "contact": "",
    "description": "Greater Chennai Corporation Urban Primary Health Centre."
  },
  {
    "name": "Thiruvottiyur UPHC",
    "category": "health",
    "lat": 13.159,
    "lng": 80.301,
    "address": "No.185, Thiruvottiyur High Road, Chennai-19",
    "hours": "Mon-Sat, OPD hours",
    "contact": "",
    "description": "Greater Chennai Corporation Urban Primary Health Centre."
  },
  {
    "name": "Puzhal UPHC",
    "category": "health",
    "lat": 13.144,
    "lng": 80.19,
    "address": "Gandhi Main Road, Puzhal, Chennai-66",
    "hours": "Mon-Sat, OPD hours",
    "contact": "",
    "description": "Greater Chennai Corporation Urban Primary Health Centre."
  },
  {
    "name": "Kannabiran UPHC, Madhavaram",
    "category": "health",
    "lat": 13.149,
    "lng": 80.228,
    "address": "Kannabiran Koil St, Madhavaram, Chennai-60",
    "hours": "Mon-Sat, OPD hours",
    "contact": "",
    "description": "Greater Chennai Corporation Urban Primary Health Centre."
  },
  {
    "name": "Kolathur UPHC",
    "category": "health",
    "lat": 13.121,
    "lng": 80.218,
    "address": "Srivinasa Nagar 3rd Main Road, Kolathur, Chennai-99",
    "hours": "Mon-Sat, OPD hours",
    "contact": "",
    "description": "Greater Chennai Corporation Urban Primary Health Centre."
  },
  {
    "name": "Sembium UPHC",
    "category": "health",
    "lat": 13.115,
    "lng": 80.245,
    "address": "No.238, Paper Mills Road, Sembium, Chennai-11",
    "hours": "Mon-Sat, OPD hours",
    "contact": "",
    "description": "Greater Chennai Corporation Urban Primary Health Centre."
  },
  {
    "name": "Pulianthope UPHC",
    "category": "health",
    "lat": 13.101,
    "lng": 80.254,
    "address": "40, Thiruvengadasamy Street, Pulianthope, Chennai-12",
    "hours": "Mon-Sat, OPD hours",
    "contact": "",
    "description": "Greater Chennai Corporation Urban Primary Health Centre."
  },
  {
    "name": "Korattur Health Post",
    "category": "health",
    "lat": 13.108,
    "lng": 80.17,
    "address": "No.32, TNHB Street, Korattur, Ambattur, Chennai-50",
    "hours": "Mon-Sat, OPD hours",
    "contact": "",
    "description": "Greater Chennai Corporation health post."
  },
  {
    "name": "Mugappair West UPHC",
    "category": "health",
    "lat": 13.079,
    "lng": 80.177,
    "address": "Kalamegam Salai, Mugappair West, Chennai-37",
    "hours": "Mon-Sat, OPD hours",
    "contact": "",
    "description": "Greater Chennai Corporation Urban Primary Health Centre."
  },
  {
    "name": "Alandur UPHC",
    "category": "health",
    "lat": 12.999,
    "lng": 80.201,
    "address": "No.12, Appavoo Street, Alandur, Chennai-16",
    "hours": "Mon-Sat, OPD hours",
    "contact": "",
    "description": "Greater Chennai Corporation Urban Primary Health Centre."
  },
  {
    "name": "Amma Unavagam, Manali New Town",
    "category": "food",
    "lat": 13.167,
    "lng": 80.258,
    "address": "40 FT Road, Manali New Town, Chennai",
    "hours": "Breakfast, lunch, dinner hours",
    "contact": "",
    "description": "Government-run subsidised canteen."
  },
  {
    "name": "Amma Unavagam, Ponniammanmedu",
    "category": "food",
    "lat": 13.133,
    "lng": 80.198,
    "address": "Periyar Nagar Main Road, Ponniammanmedu, Chennai-110",
    "hours": "Breakfast, lunch, dinner hours",
    "contact": "",
    "description": "Government-run subsidised canteen."
  },
  {
    "name": "Amma Unavagam, Vyasarpadi",
    "category": "food",
    "lat": 13.116,
    "lng": 80.251,
    "address": "87, Anna Nagar V Street, Vyasarpadi, Chennai-39",
    "hours": "Breakfast, lunch, dinner hours",
    "contact": "",
    "description": "Government-run subsidised canteen."
  },
  {
    "name": "Amma Unavagam, Raja Annamalaipuram",
    "category": "food",
    "lat": 13.033,
    "lng": 80.26,
    "address": "Greenways Road, Raja Annamalaipuram, Chennai-28",
    "hours": "Breakfast, lunch, dinner hours",
    "contact": "",
    "description": "Government-run subsidised canteen."
  },
  {
    "name": "Amma Unavagam, Guindy",
    "category": "food",
    "lat": 13.01,
    "lng": 80.212,
    "address": "Velachery Main Road, Guindy, Chennai-32",
    "hours": "Breakfast, lunch, dinner hours",
    "contact": "",
    "description": "Government-run subsidised canteen."
  },
  {
    "name": "KMC Urban Primary Health Centre, Manton",
    "category": "health",
    "lat": 22.498,
    "lng": 88.32,
    "address": "Manton, Super Market, D.H. Road, Kolkata-700034",
    "hours": "Mon-Sat, OPD hours",
    "contact": "",
    "description": "Kolkata Municipal Corporation free primary health centre."
  },
  {
    "name": "Basthi Dawakhana, Indira Gandhi Puram",
    "category": "health",
    "lat": 17.41,
    "lng": 78.5,
    "address": "Indira Gandhi Puram, Hyderabad, Telangana",
    "hours": "Mon-Sat 9am-4pm",
    "contact": "",
    "description": "GHMC free community clinic."
  },
  {
    "name": "Basthi Dawakhana, Ranganayakula Gutta",
    "category": "health",
    "lat": 17.362,
    "lng": 78.548,
    "address": "Ranganayakula Gutta, Hyderabad, Telangana",
    "hours": "Mon-Sat 9am-4pm",
    "contact": "",
    "description": "GHMC free community clinic."
  },
  {
    "name": "Basthi Dawakhana, Phool Bagh",
    "category": "health",
    "lat": 17.38,
    "lng": 78.47,
    "address": "Phool Bagh, Hyderabad, Telangana",
    "hours": "Mon-Sat 9am-4pm",
    "contact": "",
    "description": "GHMC free community clinic."
  },
  {
    "name": "Basthi Dawakhana, Milathnagar (Barkas)",
    "category": "health",
    "lat": 17.348,
    "lng": 78.478,
    "address": "Milathnagar, Barkas, Hyderabad, Telangana",
    "hours": "Mon-Sat 9am-4pm",
    "contact": "",
    "description": "GHMC free community clinic."
  },
  {
    "name": "Basthi Dawakhana, Chandrayanagutta",
    "category": "health",
    "lat": 17.34,
    "lng": 78.485,
    "address": "New Indira Nagar, Chandrayanagutta, Hyderabad, Telangana",
    "hours": "Mon-Sat 9am-4pm",
    "contact": "",
    "description": "GHMC free community clinic."
  },
  {
    "name": "Kidwai Nagar Municipal Dispensary",
    "category": "health",
    "lat": 18.97,
    "lng": 72.835,
    "address": "Kidwai Nagar Health Post, Mumbai",
    "hours": "Mon-Sat, OPD hours",
    "contact": "",
    "description": "BMC municipal dispensary."
  },
  {
    "name": "L.B.S. Market Municipal Dispensary, Matunga",
    "category": "health",
    "lat": 19.027,
    "lng": 72.855,
    "address": "L.B.S. Market, 1st Floor, Near Matunga Station, Matunga East, Mumbai",
    "hours": "Mon-Sat, OPD hours",
    "contact": "",
    "description": "BMC municipal dispensary."
  },
  {
    "name": "Jijamata Nagar Municipal Dispensary, Worli",
    "category": "health",
    "lat": 19.002,
    "lng": 72.818,
    "address": "Jijamata Nagar, Dr. E Moses Road, Near Worli Cemetery, Worli, Mumbai-18",
    "hours": "Mon-Sat, OPD hours",
    "contact": "",
    "description": "BMC municipal dispensary."
  },
  {
    "name": "Sasmira Marg Municipal Dispensary, Worli",
    "category": "health",
    "lat": 19.008,
    "lng": 72.828,
    "address": "Sasmira Health Post, Behind Baneshwar Mandir, Sasmira Road, Worli, Mumbai",
    "hours": "Mon-Sat, OPD hours",
    "contact": "",
    "description": "BMC municipal dispensary."
  },
  {
    "name": "Abhuday Nagar Municipal Dispensary, Sewri",
    "category": "health",
    "lat": 18.997,
    "lng": 72.86,
    "address": "Zakeria Bunder, T.J. Road, Near Zaveri Honda Showroom, Sewree, Mumbai",
    "hours": "Mon-Sat, OPD hours",
    "contact": "",
    "description": "BMC municipal dispensary."
  },
  {
    "name": "Fergusson Road Municipal Dispensary",
    "category": "health",
    "lat": 18.982,
    "lng": 72.832,
    "address": "Fergusson Road, N.M. Joshi Marg, Mumbai",
    "hours": "Mon-Sat, OPD hours",
    "contact": "",
    "description": "BMC municipal dispensary."
  },
  {
    "name": "Jodhpur Tekra Urban Health Centre",
    "category": "health",
    "lat": 23.028,
    "lng": 72.528,
    "address": "Jodhpur Cross Road, Jodhpur Tekra, Ahmedabad-380015",
    "hours": "Mon-Sat, OPD hours",
    "contact": "",
    "description": "AMC Urban Health Centre, free maternal and child health services."
  },
  {
    "name": "Thaltej Urban Health Centre",
    "category": "health",
    "lat": 23.048,
    "lng": 72.505,
    "address": "Opp. Khodiyarnagar, Near Dwarkesh Flat, Thaltej, Ahmedabad",
    "hours": "Mon-Sat, OPD hours",
    "contact": "",
    "description": "AMC Urban Health Centre."
  },
  {
    "name": "Naranpura Vistar Urban Health Centre",
    "category": "health",
    "lat": 23.047,
    "lng": 72.567,
    "address": "Naranpura Muster Station Premises, Ankur Cross Road, Naranpura, Ahmedabad-380013",
    "hours": "Mon-Sat, OPD hours",
    "contact": "",
    "description": "AMC Urban Health Centre."
  },
  {
    "name": "IIM Ahmedabad Shelter for Urban Homeless",
    "category": "shelter",
    "lat": 23.032,
    "lng": 72.53,
    "address": "Near Andh Jan Mandal, Opp. IIM Ahmedabad New Campus, Under IIM Flyover, Ahmedabad",
    "hours": "Open 24/7",
    "contact": "",
    "description": "AMC-run shelter for urban homeless, capacity 60, run by GRGVS."
  },
  {
    "name": "Jhansi Ni Rani Shelter",
    "category": "shelter",
    "lat": 23.039,
    "lng": 72.517,
    "address": "Near Bimanagar Garden, Ahmedabad",
    "hours": "Open 24/7",
    "contact": "",
    "description": "AMC-run shelter for urban homeless, capacity 48, run by GRGVS."
  },
  {
    "name": "Gurudwara Gobind Dham",
    "category": "food",
    "lat": 23.041,
    "lng": 72.514,
    "address": "S.G. Highway, Thaltej, Ahmedabad",
    "hours": "7am-9pm, daily langar",
    "contact": "",
    "description": "One of Ahmedabad's largest gurudwaras; offers daily langar and free education for the underprivileged."
  },
  {
    "name": "Gurudwara Shri Dashmesh Darbar",
    "category": "food",
    "lat": 23.0225,
    "lng": 72.5714,
    "address": "Ahmedabad, Gujarat",
    "hours": "Daily langar",
    "contact": "",
    "description": "Sikh gurudwara offering free community meals."
  },
  {
    "name": "Government Ayurved Dispensary, Vaishali Nagar",
    "category": "health",
    "lat": 26.9124,
    "lng": 75.73,
    "address": "101, Nityanand Nagar, Bhan Nagar, Main Road, Moti Nagar, Jaipur-302021",
    "hours": "Mon-Sat, OPD hours",
    "contact": "",
    "description": "Government ayurvedic dispensary offering free consultation and medicines."
  },
  {
    "name": "SMS Hospital",
    "category": "health",
    "lat": 26.9096,
    "lng": 75.8144,
    "address": "JLN Marg, Jaipur-302004, Rajasthan",
    "hours": "24 hours",
    "contact": "",
    "description": "Sawai Man Singh Hospital — largest government hospital in Rajasthan, free treatment for eligible patients."
  },
  {
    "name": "SMS Mahila Hospital",
    "category": "health",
    "lat": 26.915,
    "lng": 75.82,
    "address": "Adarsh Nagar, Jaipur, Rajasthan",
    "hours": "24 hours",
    "contact": "",
    "description": "Government women's hospital attached to SMS Hospital network."
  },
  {
    "name": "Gurudwara Sri Guru Singh Sabha, Raja Park",
    "category": "food",
    "lat": 26.908,
    "lng": 75.828,
    "address": "Govind Marg, Raja Park, Adarsh Nagar, Jaipur",
    "hours": "Daily langar",
    "contact": "",
    "description": "One of Jaipur's largest gurudwaras; free langar and low-cost lodging for travelers."
  },
  {
    "name": "Dr. Radha Krishnan State Central Library",
    "category": "education",
    "lat": 26.9,
    "lng": 75.808,
    "address": "Saumya Marg, Gandhi Nagar, Jaipur-302015",
    "hours": "Mon-Sat",
    "contact": "0141-2707694",
    "description": "Rajasthan's state central library, free public reading access."
  },
  {
    "name": "Balrampur Hospital",
    "category": "health",
    "lat": 26.857,
    "lng": 80.928,
    "address": "Golaganj, Kaiserbagh, Lucknow, Uttar Pradesh",
    "hours": "24 hours",
    "contact": "0522-2624040",
    "description": "Largest government hospital in Uttar Pradesh, established 1869; free/subsidised treatment."
  },
  {
    "name": "Jiamau Night Shelter",
    "category": "shelter",
    "lat": 26.882,
    "lng": 80.954,
    "address": "Jiamau, Lucknow, Uttar Pradesh",
    "hours": "Open overnight, 24/7 in winter",
    "contact": "",
    "description": "Lucknow's largest night shelter, run by Ummid Sanstha; includes an on-site library and daily classes."
  },
  {
    "name": "Mawaiya Shelter Home",
    "category": "shelter",
    "lat": 26.81,
    "lng": 80.935,
    "address": "Mawaiya, Lucknow, Uttar Pradesh",
    "hours": "Open overnight",
    "contact": "",
    "description": "Lucknow Municipal Corporation night shelter for the homeless."
  },
  {
    "name": "Charbagh Shelter Home",
    "category": "shelter",
    "lat": 26.832,
    "lng": 80.92,
    "address": "Charbagh, Lucknow, Uttar Pradesh",
    "hours": "Open overnight",
    "contact": "",
    "description": "Lucknow Municipal Corporation night shelter near Charbagh railway station."
  },
  {
    "name": "Yahiyaganj Gurudwara",
    "category": "food",
    "lat": 26.872,
    "lng": 80.913,
    "address": "Yahiyaganj, Lucknow, Uttar Pradesh",
    "hours": "Daily langar",
    "contact": "",
    "description": "Runs langar-seva for local night shelters in addition to daily community meals."
  },
  {
    "name": "Naka Gurudwara",
    "category": "food",
    "lat": 26.845,
    "lng": 80.902,
    "address": "Naka Hindola, Lucknow, Uttar Pradesh",
    "hours": "Daily langar",
    "contact": "",
    "description": "Sikh gurudwara offering free community meals; supports local shelter homes."
  },
  {
    "name": "Aishbagh Gurudwara",
    "category": "food",
    "lat": 26.838,
    "lng": 80.895,
    "address": "Aishbagh, Lucknow, Uttar Pradesh",
    "hours": "Daily langar",
    "contact": "",
    "description": "Sikh gurudwara offering free community meals; supports local shelter homes."
  },
  {
    "name": "Amir-ud-daula Public Library",
    "category": "education",
    "lat": 26.856,
    "lng": 80.927,
    "address": "BN Road, Kaiserbagh, Lucknow-226001, Uttar Pradesh",
    "hours": "12:30pm-7pm (closed Tuesday)",
    "contact": "",
    "description": "Lucknow's oldest public library (est. 1868), open to all at minimal charges, 2 lakh+ books in 7 languages."
  },
  {
    "name": "Sarthana Urban Health Centre",
    "category": "health",
    "lat": 21.235,
    "lng": 72.865,
    "address": "Near Vishal Nagar, Sarthana Jakatnaka, Surat, Gujarat",
    "hours": "Mon-Sat, OPD hours",
    "contact": "",
    "description": "Surat Municipal Corporation urban health centre."
  },
  {
    "name": "Anjana (Mithikhadi) Urban Health Centre",
    "category": "health",
    "lat": 21.145,
    "lng": 72.795,
    "address": "Opp. Ambedkarnagar, Near Anjana Farm, Mithikhadi, Surat, Gujarat",
    "hours": "Mon-Sat, OPD hours",
    "contact": "",
    "description": "Surat Municipal Corporation urban health centre."
  },
  {
    "name": "Utran Urban Health Centre",
    "category": "health",
    "lat": 21.245,
    "lng": 72.81,
    "address": "Devikrupa Society, Near Utran Community Hall, Utran Power House Road, Surat, Gujarat",
    "hours": "Mon-Sat, OPD hours",
    "contact": "",
    "description": "Surat Municipal Corporation urban health centre."
  },
  {
    "name": "Velanja Urban Health Centre",
    "category": "health",
    "lat": 21.12,
    "lng": 72.75,
    "address": "Near Rangoli Chokadi, Opp. PNB Bank, Velanja, Surat, Gujarat",
    "hours": "Mon-Sat, OPD hours",
    "contact": "",
    "description": "Surat Municipal Corporation urban health centre."
  },
  {
    "name": "Katargam Urban Community Health Centre",
    "category": "health",
    "lat": 21.22,
    "lng": 72.835,
    "address": "Opp. Makanji Park, Near Badashram, Katargam, Surat, Gujarat",
    "hours": "Mon-Sat, OPD hours",
    "contact": "",
    "description": "Surat Municipal Corporation urban community health centre."
  },
  {
    "name": "Singanpore Urban Primary Health Centre",
    "category": "health",
    "lat": 21.205,
    "lng": 72.85,
    "address": "Near Singanpore Vegetable Market, Singanpore Causeway Road, Surat, Gujarat",
    "hours": "Mon-Sat, OPD hours",
    "contact": "",
    "description": "Surat Municipal Corporation urban primary health centre."
  },
  {
    "name": "Magob Health Center",
    "category": "health",
    "lat": 21.165,
    "lng": 72.77,
    "address": "Bhagyoday Industrial Estate, Magob, Surat, Gujarat",
    "hours": "Mon-Sat, OPD hours",
    "contact": "",
    "description": "Surat Municipal Corporation health centre."
  },
  {
    "name": "Punagam Urban Health Center",
    "category": "health",
    "lat": 21.155,
    "lng": 72.79,
    "address": "Punagam Road, Near Punagam Police Chowki, Ash Nagar Society, Punagam, Surat-395010, Gujarat",
    "hours": "Mon-Sat, OPD hours",
    "contact": "",
    "description": "Surat Municipal Corporation urban health centre."
  },
  {
    "name": "Rustampura Health Center",
    "category": "health",
    "lat": 21.195,
    "lng": 72.825,
    "address": "Opp. Rustampura Community Hall, Rustampura Main Road, Surat, Gujarat",
    "hours": "Mon-Sat, OPD hours",
    "contact": "",
    "description": "Surat Municipal Corporation health centre."
  },
  {
    "name": "Hirabaug Urban Health Centre",
    "category": "health",
    "lat": 21.21,
    "lng": 72.845,
    "address": "Near J.D. Gabani Library, Opp. Narmad Nagar, Hirabaug Circle, Varachha Road, Surat, Gujarat",
    "hours": "Mon-Sat, OPD hours",
    "contact": "",
    "description": "Surat Municipal Corporation urban health centre."
  },
  {
    "name": "Kansad Urban Health Center",
    "category": "health",
    "lat": 21.09,
    "lng": 72.885,
    "address": "Opp. Kansad Community Hall, Navu Faliyu, Kansad Gam, Sachin, Surat, Gujarat",
    "hours": "Mon-Sat, OPD hours",
    "contact": "",
    "description": "Surat Municipal Corporation urban health centre."
  },
  {
    "name": "Unngam Urban Health Center",
    "category": "health",
    "lat": 21.175,
    "lng": 72.76,
    "address": "Behind Chacha School, Halpativas, Near Tanki Faliyu, Unn Patiya, Surat, Gujarat",
    "hours": "Mon-Sat, OPD hours",
    "contact": "",
    "description": "Surat Municipal Corporation urban health centre."
  },
  {
    "name": "Pal Urban Health Center",
    "category": "health",
    "lat": 21.18,
    "lng": 72.78,
    "address": "Opp. Abhinandan Residency, Jaganath Mahadev Temple, Pal, Surat, Gujarat",
    "hours": "Mon-Sat, OPD hours",
    "contact": "",
    "description": "Surat Municipal Corporation urban health centre."
  },
  {
    "name": "Vanki Bordi Urban Health Centre",
    "category": "health",
    "lat": 21.19,
    "lng": 72.83,
    "address": "Dr. Bhakka Street, Shahpore, Surat, Gujarat",
    "hours": "Mon-Sat, OPD hours",
    "contact": "",
    "description": "Surat Municipal Corporation urban health centre."
  },
  {
    "name": "Limdi Sheri Urban Health Centre",
    "category": "health",
    "lat": 21.198,
    "lng": 72.828,
    "address": "Navapura, Kotsafil Road, Surat, Gujarat",
    "hours": "Mon-Sat, OPD hours",
    "contact": "",
    "description": "Surat Municipal Corporation urban health centre."
  },
  {
    "name": "Udhna Urban Health Centre",
    "category": "health",
    "lat": 21.165,
    "lng": 72.83,
    "address": "Chosanth Jonagani Mata Mandir, Near Hanuman Estate, Below Surat Raktdan Kendra, Udhna, Surat, Gujarat",
    "hours": "Mon-Sat, OPD hours",
    "contact": "",
    "description": "Surat Municipal Corporation urban health centre."
  },
  {
    "name": "Dumas Urban Health Centre",
    "category": "health",
    "lat": 21.085,
    "lng": 72.715,
    "address": "Opp. Police Station, Sultanabad, Dumas, Surat, Gujarat",
    "hours": "Mon-Sat, OPD hours",
    "contact": "",
    "description": "Surat Municipal Corporation urban health centre."
  },
  {
    "name": "SMIMER Hospital Night Shelter",
    "category": "shelter",
    "lat": 21.21,
    "lng": 72.82,
    "address": "SMIMER Hospital Campus, Umarwada, Surat, Gujarat",
    "hours": "Open overnight",
    "contact": "",
    "description": "Night shelter on the campus of Surat Municipal Institute of Medical Education & Research."
  },
  {
    "name": "Gurudwara Guru Nanak Wadi",
    "category": "food",
    "lat": 21.165,
    "lng": 72.83,
    "address": "Udhna, Surat, Gujarat",
    "hours": "Daily langar",
    "contact": "",
    "description": "Sikh gurudwara offering free community meals in Udhna."
  },
  {
    "name": "Community Health Centre, Edapally",
    "category": "health",
    "lat": 10.027,
    "lng": 76.308,
    "address": "Near Changampuzha Park, Edapally, Ernakulam, Kerala",
    "hours": "Mon-Sat, OPD hours",
    "contact": "",
    "description": "Public community health centre serving Edapally."
  },
  {
    "name": "Palluruthy Relief Settlement",
    "category": "shelter",
    "lat": 9.928,
    "lng": 76.26,
    "address": "Palluruthy Veli, Kochi, Kerala",
    "hours": "Open 24/7",
    "contact": "",
    "description": "Shelter and rehabilitation settlement under Kochi Municipal Corporation, managed with the Peoples Council for Social Justice; ~300 residents."
  },
  {
    "name": "Kochi Women's Night Shelter",
    "category": "shelter",
    "lat": 9.972,
    "lng": 76.284,
    "address": "Near KSRTC Bus Stand, Ernakulam, Kochi, Kerala",
    "hours": "Open overnight",
    "contact": "",
    "description": "Kochi Municipal Corporation night shelter for women, providing free and safe accommodation."
  },
  {
    "name": "Kochi Municipal Corporation Public Library",
    "category": "education",
    "lat": 9.9816,
    "lng": 76.2999,
    "address": "Ernakulam, Kochi, Kerala",
    "hours": "Mon-Sat",
    "contact": "",
    "description": "One of six free public libraries managed by Kochi Municipal Corporation."
  },
  {
    "name": "Civil Hospital and Dispensary, Burail",
    "category": "health",
    "lat": 30.698,
    "lng": 76.748,
    "address": "1642, V4 Road, Burail Village, Sector 45, Chandigarh-160047",
    "hours": "Mon-Sat, OPD hours",
    "contact": "",
    "description": "Government-run hospital and dispensary serving Sector 45 and surrounding areas."
  },
  {
    "name": "Civil Dispensary, Sector 42",
    "category": "health",
    "lat": 30.715,
    "lng": 76.765,
    "address": "Sector 42, Chandigarh",
    "hours": "Mon-Sat, OPD hours",
    "contact": "",
    "description": "Chandigarh Health & Family Welfare Department civil dispensary."
  },
  {
    "name": "Civil Dispensary, Sector 2",
    "category": "health",
    "lat": 30.745,
    "lng": 76.79,
    "address": "Sector 2, Chandigarh",
    "hours": "Mon-Sat, OPD hours",
    "contact": "",
    "description": "Chandigarh Health & Family Welfare Department civil dispensary."
  },
  {
    "name": "Civil Hospital, Manimajra",
    "category": "health",
    "lat": 30.728,
    "lng": 76.838,
    "address": "Manimajra, Chandigarh",
    "hours": "24 hours",
    "contact": "",
    "description": "Government hospital serving Manimajra and surrounding areas."
  },
  {
    "name": "Gurdwara Sri Guru Teg Bahadur Sahib",
    "category": "food",
    "lat": 30.725,
    "lng": 76.768,
    "address": "Sector 34C, Chandigarh",
    "hours": "Daily langar",
    "contact": "",
    "description": "Large gurudwara with guest rooms and a hall accommodating 300 visitors; free langar daily."
  },
  {
    "name": "Gurudwara Sri Amb Sahib",
    "category": "food",
    "lat": 30.742,
    "lng": 76.783,
    "address": "Near Old Bus Stand, PSEB Headquarters, Chandigarh",
    "hours": "24/7 langar",
    "contact": "",
    "description": "Historic gurudwara with round-the-clock free langar service."
  },
  {
    "name": "Night Shelter, Sector 17",
    "category": "shelter",
    "lat": 30.741,
    "lng": 76.782,
    "address": "Sector 17, Chandigarh",
    "hours": "Open overnight",
    "contact": "",
    "description": "Government-run night shelter for the homeless."
  },
  {
    "name": "Divisional Library, Sector 34",
    "category": "education",
    "lat": 30.724,
    "lng": 76.769,
    "address": "Sector 34-A, Chandigarh-160034",
    "hours": "Mon-Fri 10am-7:30pm, Sat-Sun 10am-6pm",
    "contact": "",
    "description": "Free public library run by Chandigarh's Department of Public Instruction."
  },
  {
    "name": "Prabh Aasra Shelter",
    "category": "shelter",
    "lat": 30.71,
    "lng": 76.8,
    "address": "Chandigarh",
    "hours": "Open 24/7",
    "contact": "",
    "description": "NGO providing shelter, education, and healthcare to the destitute and needy."
  },
  {
    "name": "Indira Gandhi Government Medical College & Hospital (Mayo Hospital)",
    "category": "health",
    "lat": 21.155,
    "lng": 79.093,
    "address": "Mayo Hospital, Central Avenue, Mominpura, Nagpur-440018, Maharashtra",
    "hours": "24 hours",
    "contact": "0712-2725274",
    "description": "Major government hospital providing free/subsidised care, focused on underserved communities."
  },
  {
    "name": "Mahim Police Colony Dispensary",
    "category": "health",
    "lat": 19.043,
    "lng": 72.84,
    "address": "Police Colony, Mahim, Mumbai-400016",
    "hours": "Mon-Sat, OPD hours",
    "contact": "",
    "description": "MCGM Aapla Davakhana municipal dispensary."
  },
  {
    "name": "Senapati Bapat Marg Dispensary",
    "category": "health",
    "lat": 19.01,
    "lng": 72.835,
    "address": "Senapati Bapat Marg, Holy Cross, Mumbai-400013",
    "hours": "Mon-Sat, OPD hours",
    "contact": "",
    "description": "MCGM Aapla Davakhana municipal dispensary."
  },
  {
    "name": "B.G. Kherwadi Municipal Maternity Home",
    "category": "health",
    "lat": 19.06,
    "lng": 72.845,
    "address": "Ram Mandir, Children Complex, Kherwadi Signal, Kherwadi, Bandra East, Mumbai-400052",
    "hours": "24 hours",
    "contact": "",
    "description": "MCGM municipal maternity home."
  },
  {
    "name": "Shastri Nagar Dispensary, Goregaon",
    "category": "health",
    "lat": 19.165,
    "lng": 72.85,
    "address": "Near Shiv Sena Shakha, Shastri Nagar, Mumbai",
    "hours": "Mon-Sat, OPD hours",
    "contact": "",
    "description": "MCGM Aapla Davakhana municipal dispensary."
  },
  {
    "name": "Khar West MCGM Dispensary",
    "category": "health",
    "lat": 19.07,
    "lng": 72.835,
    "address": "MCGM Building, Dr. Ambedkar Road, Khar West, Mumbai-400052",
    "hours": "9am-4pm",
    "contact": "",
    "description": "MCGM Aapla Davakhana municipal dispensary."
  },
  {
    "name": "Marol Maroshi Road Dispensary",
    "category": "health",
    "lat": 19.119,
    "lng": 72.879,
    "address": "CTS No. 426/A/2, K.P. Aurum, Marol Maroshi Road, Andheri East, Mumbai",
    "hours": "Mon-Sat, OPD hours",
    "contact": "",
    "description": "MCGM Aapla Davakhana municipal dispensary."
  },
  {
    "name": "Deonar Municipal Dispensary (Gaikwad Garden)",
    "category": "health",
    "lat": 19.048,
    "lng": 72.915,
    "address": "Gaikwad Garden, Deonar, Mumbai",
    "hours": "Mon-Sat, OPD hours",
    "contact": "",
    "description": "MCGM Aapla Davakhana municipal dispensary."
  },
  {
    "name": "RML Municipal Dispensary",
    "category": "health",
    "lat": 18.97,
    "lng": 72.83,
    "address": "Majestic Building, Gate No. 4, Mumbai",
    "hours": "Mon-Sat, OPD hours",
    "contact": "",
    "description": "MCGM Aapla Davakhana municipal dispensary."
  },
  {
    "name": "Mahul SRA Dispensary",
    "category": "health",
    "lat": 19.035,
    "lng": 72.9,
    "address": "Ground Floor, Building No. 42, MHADA SRA Colony, Mahul, Mumbai",
    "hours": "Mon-Sat, OPD hours",
    "contact": "",
    "description": "MCGM Aapla Davakhana municipal dispensary."
  },
  {
    "name": "Malvani Gate No. 6 Dispensary",
    "category": "health",
    "lat": 19.192,
    "lng": 72.815,
    "address": "Opp. Holy Angel School, Malvani, Malad West, Mumbai",
    "hours": "Mon-Sat, OPD hours",
    "contact": "",
    "description": "MCGM Aapla Davakhana municipal dispensary."
  },
  {
    "name": "Riddhi Garden Dispensary, Malad East",
    "category": "health",
    "lat": 19.185,
    "lng": 72.86,
    "address": "Near Valentine Apartment, Gen. AK Vaidya Marg, Film City Road, Malad East, Mumbai-400097",
    "hours": "Mon-Sat, OPD hours",
    "contact": "",
    "description": "MCGM Aapla Davakhana municipal dispensary."
  },
  {
    "name": "Squatters Colony Dispensary, Chincholi",
    "category": "health",
    "lat": 19.17,
    "lng": 72.845,
    "address": "Near Chincholi Phatak, Malad, Mumbai",
    "hours": "Evening hours",
    "contact": "",
    "description": "MCGM Aapla Davakhana municipal dispensary."
  },
  {
    "name": "Ketkipada Dispensary, Kandivali",
    "category": "health",
    "lat": 19.208,
    "lng": 72.855,
    "address": "Municipal Welfare Centre Building, V.V. Road, Kandivali, Mumbai",
    "hours": "Mon-Sat, OPD hours",
    "contact": "",
    "description": "MCGM Aapla Davakhana municipal dispensary."
  },
  {
    "name": "K.D. Compound Dispensary, Kandivali",
    "category": "health",
    "lat": 19.205,
    "lng": 72.833,
    "address": "CTS No. 547, Islam Compound, Near Old Link Road, Kandivali, Mumbai",
    "hours": "Mon-Sat, OPD hours",
    "contact": "",
    "description": "MCGM Aapla Davakhana municipal dispensary."
  },
  {
    "name": "Charkop Sector 1A Dispensary",
    "category": "health",
    "lat": 19.209,
    "lng": 72.834,
    "address": "K.D. Compound, Near Charkop Sector 1A, Mumbai",
    "hours": "Mon-Sat, OPD hours",
    "contact": "",
    "description": "MCGM Aapla Davakhana municipal dispensary."
  },
  {
    "name": "New Link Road Health Post",
    "category": "health",
    "lat": 19.16,
    "lng": 72.83,
    "address": "Behind Symphony Building, New Link Road, Mumbai",
    "hours": "Mon-Sat, OPD hours",
    "contact": "",
    "description": "MCGM Aapla Davakhana health post."
  },
  {
    "name": "Checknaka Dispensary",
    "category": "health",
    "lat": 19.2,
    "lng": 72.84,
    "address": "Din Dayal Upadhyay Marg, Opp. Croma Shop, Checknaka, Mumbai",
    "hours": "Mon-Sat, OPD hours",
    "contact": "",
    "description": "MCGM Aapla Davakhana municipal dispensary."
  },
  {
    "name": "Zulelal Marg Dispensary",
    "category": "health",
    "lat": 19.05,
    "lng": 72.84,
    "address": "Zulelal Marg, Mumbai",
    "hours": "Mon-Sat, OPD hours",
    "contact": "",
    "description": "MCGM Aapla Davakhana municipal dispensary."
  },
  {
    "name": "Sanjeevani Clinic and Day Care Center, Bhanpur",
    "category": "health",
    "lat": 23.29,
    "lng": 77.435,
    "address": "Patel Nagar, Chola Naka, Near Shiv Mandir, Bhanpur, Bhopal, Madhya Pradesh",
    "hours": "Mon-Sat, OPD hours",
    "contact": "",
    "description": "Free government health and day-care clinic."
  },
  {
    "name": "Sanjeevani Clinic, Harshwardhan Nagar",
    "category": "health",
    "lat": 23.22,
    "lng": 77.43,
    "address": "Road No. 3, Harshwardhan Nagar, Bhopal, Madhya Pradesh",
    "hours": "Mon-Sat, OPD hours",
    "contact": "",
    "description": "Free government health clinic."
  },
  {
    "name": "Civil Dispensary, Satpuda Bhawan",
    "category": "health",
    "lat": 23.235,
    "lng": 77.4,
    "address": "Satpuda Bhawan, Bhopal, Madhya Pradesh",
    "hours": "Mon-Sat, OPD hours",
    "contact": "",
    "description": "Government of Madhya Pradesh civil dispensary."
  },
  {
    "name": "Civil Dispensary, Vindhyachal Bhawan",
    "category": "health",
    "lat": 23.236,
    "lng": 77.401,
    "address": "Vindhyachal Bhawan, Bhopal, Madhya Pradesh",
    "hours": "Mon-Sat, OPD hours",
    "contact": "",
    "description": "Government of Madhya Pradesh civil dispensary."
  },
  {
    "name": "Civil Dispensary, Vallabh Bhawan",
    "category": "health",
    "lat": 23.234,
    "lng": 77.399,
    "address": "Vallabh Bhawan, Bhopal, Madhya Pradesh",
    "hours": "Mon-Sat, OPD hours",
    "contact": "",
    "description": "Government of Madhya Pradesh civil dispensary."
  },
  {
    "name": "Maa Kankeshwari Devi Sanjeevani Clinic",
    "category": "health",
    "lat": 22.69,
    "lng": 75.87,
    "address": "Kulkarni Nagar, Indore, Madhya Pradesh",
    "hours": "Mon-Sat, OPD hours",
    "contact": "",
    "description": "Free super-specialty government clinic; accepts Ayushman Yojana and ABHA cards."
  },
  {
    "name": "Ernavoor UPHC",
    "category": "health",
    "lat": 13.185,
    "lng": 80.295,
    "address": "B.No.63, All India Radio Nagar, Tsunami Quarters, Ernavoor, Chennai-57",
    "hours": "Mon-Sat, OPD hours",
    "contact": "",
    "description": "Greater Chennai Corporation Urban Primary Health Centre."
  },
  {
    "name": "Sathangadu UPHC",
    "category": "health",
    "lat": 13.165,
    "lng": 80.305,
    "address": "No.9A, Balakrishna Naidu Colony, 2nd Street, Kaladipet, Thiruvottiyur, Chennai-19",
    "hours": "Mon-Sat, OPD hours",
    "contact": "",
    "description": "Greater Chennai Corporation Urban Primary Health Centre."
  },
  {
    "name": "Thaangal UPHC",
    "category": "health",
    "lat": 13.17,
    "lng": 80.3,
    "address": "No.3/2, Poongavanapuram Main Street, Kaladipet, Chennai-19",
    "hours": "Mon-Sat, OPD hours",
    "contact": "",
    "description": "Greater Chennai Corporation Urban Primary Health Centre."
  },
  {
    "name": "Manali New Town UPHC",
    "category": "health",
    "lat": 13.17,
    "lng": 80.26,
    "address": "Government PHC, Manali New Town, Chennai-103",
    "hours": "Mon-Sat, OPD hours",
    "contact": "",
    "description": "Greater Chennai Corporation Urban Primary Health Centre."
  },
  {
    "name": "Manali UPHC",
    "category": "health",
    "lat": 13.16,
    "lng": 80.265,
    "address": "No.1, Nedunchezhian Salai, Manali, Chennai-68",
    "hours": "Mon-Sat, OPD hours",
    "contact": "",
    "description": "Greater Chennai Corporation Urban Primary Health Centre."
  },
  {
    "name": "Madhavaram UPHC",
    "category": "health",
    "lat": 13.145,
    "lng": 80.23,
    "address": "Swamy Nagar, Madhavaram, Chennai-60",
    "hours": "Mon-Sat, OPD hours",
    "contact": "",
    "description": "Greater Chennai Corporation Urban Primary Health Centre."
  },
  {
    "name": "Kodungaiyur I UPHC",
    "category": "health",
    "lat": 13.125,
    "lng": 80.265,
    "address": "No.15, Anna Salai, Kodungaiyur, Chennai-118",
    "hours": "Mon-Sat, OPD hours",
    "contact": "",
    "description": "Greater Chennai Corporation Urban Primary Health Centre."
  },
  {
    "name": "Vivekanandha UPHC (Kodungaiyur II)",
    "category": "health",
    "lat": 13.123,
    "lng": 80.268,
    "address": "No.39, Appar Street, Vivekananda Nagar, Kodungaiyur, Chennai-118",
    "hours": "Mon-Sat, OPD hours",
    "contact": "",
    "description": "Greater Chennai Corporation Urban Primary Health Centre."
  },
  {
    "name": "Sharma Nagar UPHC",
    "category": "health",
    "lat": 13.118,
    "lng": 80.25,
    "address": "No.66, S.A. Colony, 8th Street, Vyasarpadi, Chennai-39",
    "hours": "Mon-Sat, OPD hours",
    "contact": "",
    "description": "Greater Chennai Corporation Urban Primary Health Centre."
  },
  {
    "name": "Vyasarpadi UPHC",
    "category": "health",
    "lat": 13.115,
    "lng": 80.248,
    "address": "No.155A, 14th Cross Street, MKB Nagar, Vyasarpadi, Chennai-39",
    "hours": "Mon-Sat, OPD hours",
    "contact": "",
    "description": "Greater Chennai Corporation Urban Primary Health Centre."
  },
  {
    "name": "R.K. Nagar UPHC",
    "category": "health",
    "lat": 13.123,
    "lng": 80.287,
    "address": "No.140, Annai Sandhya Nagar, 1st Street, Tondaiyarpet, Chennai-81",
    "hours": "Mon-Sat, OPD hours",
    "contact": "",
    "description": "Greater Chennai Corporation Urban Primary Health Centre."
  },
  {
    "name": "New Washermenpet UPHC",
    "category": "health",
    "lat": 13.118,
    "lng": 80.29,
    "address": "No.4, Cheriyan Nagar 4th Street, New Washermenpet, Chennai-81",
    "hours": "Mon-Sat, OPD hours",
    "contact": "",
    "description": "Greater Chennai Corporation Urban Primary Health Centre."
  },
  {
    "name": "V.O.C Nagar UPHC",
    "category": "health",
    "lat": 13.12,
    "lng": 80.285,
    "address": "No.1, Chelliamman Koil Street, Tondaiyarpet, Chennai-81",
    "hours": "Mon-Sat, OPD hours",
    "contact": "",
    "description": "Greater Chennai Corporation Urban Primary Health Centre."
  },
  {
    "name": "Korukkupet UPHC",
    "category": "health",
    "lat": 13.108,
    "lng": 80.283,
    "address": "No.15, Amman Koil Street, Sivaji Nagar, Korukkupet, Chennai-21",
    "hours": "Mon-Sat, OPD hours",
    "contact": "",
    "description": "Greater Chennai Corporation Urban Primary Health Centre."
  },
  {
    "name": "Tondaiyarpet UPHC",
    "category": "health",
    "lat": 13.116,
    "lng": 80.287,
    "address": "52, Kasima Nagar 3rd Street, Chennai-13",
    "hours": "Mon-Sat, OPD hours",
    "contact": "",
    "description": "Greater Chennai Corporation Urban Primary Health Centre."
  },
  {
    "name": "Perambur UPHC",
    "category": "health",
    "lat": 13.108,
    "lng": 80.238,
    "address": "No.100, Kamaraj Nagar 2nd Street, Vyasarapadi, Chennai-39",
    "hours": "Mon-Sat, OPD hours",
    "contact": "",
    "description": "Greater Chennai Corporation Urban Primary Health Centre."
  },
  {
    "name": "Elango Nagar UPHC",
    "category": "health",
    "lat": 13.116,
    "lng": 80.247,
    "address": "No.18, Dr. Ambedkar College Road, Vyasarpadi, Chennai-39",
    "hours": "Mon-Sat, OPD hours",
    "contact": "",
    "description": "Greater Chennai Corporation Urban Primary Health Centre."
  },
  {
    "name": "Grace Garden UPHC",
    "category": "health",
    "lat": 13.112,
    "lng": 80.295,
    "address": "No.1, Venkatesan Street, Royapuram, Chennai-13",
    "hours": "Mon-Sat, OPD hours",
    "contact": "",
    "description": "Greater Chennai Corporation Urban Primary Health Centre."
  },
  {
    "name": "Seven Wells UPHC (health post)",
    "category": "health",
    "lat": 13.095,
    "lng": 80.287,
    "address": "No.69, Amman Koil Street, Chennai-1",
    "hours": "Mon-Sat, OPD hours",
    "contact": "",
    "description": "Greater Chennai Corporation Urban Primary Health Centre."
  },
  {
    "name": "Harbour UPHC",
    "category": "health",
    "lat": 13.098,
    "lng": 80.295,
    "address": "No.1, 4th Lane Beach Road, Chennai-1",
    "hours": "Mon-Sat, OPD hours",
    "contact": "",
    "description": "Greater Chennai Corporation Urban Primary Health Centre."
  },
  {
    "name": "Pudupet UPHC",
    "category": "health",
    "lat": 13.068,
    "lng": 80.25,
    "address": "No.22, Langs Garden Street, Pudupet, Chennai-2",
    "hours": "Mon-Sat, OPD hours",
    "contact": "",
    "description": "Greater Chennai Corporation Urban Primary Health Centre."
  },
  {
    "name": "TVK Nagar UPHC",
    "category": "health",
    "lat": 13.08,
    "lng": 80.22,
    "address": "Pallavan Salai, Chennai",
    "hours": "Mon-Sat, OPD hours",
    "contact": "",
    "description": "Greater Chennai Corporation Urban Primary Health Centre."
  },
  {
    "name": "Wadia Nagar UPHC",
    "category": "health",
    "lat": 13.095,
    "lng": 80.24,
    "address": "No.57, Cooks Road, Otteri, Chennai-12",
    "hours": "Mon-Sat, OPD hours",
    "contact": "",
    "description": "Greater Chennai Corporation Urban Primary Health Centre."
  },
  {
    "name": "Triplicane UPHC",
    "category": "health",
    "lat": 13.062,
    "lng": 80.275,
    "address": "3, Dr. Besant Road, Triplicane, Chennai-5",
    "hours": "Mon-Sat, OPD hours",
    "contact": "",
    "description": "Greater Chennai Corporation Urban Primary Health Centre."
  },
  {
    "name": "S.M. Nagar UPHC",
    "category": "health",
    "lat": 13.04,
    "lng": 80.235,
    "address": "Ramakamathupuram Kalayana Mandapam, T-Nagar, Chennai-17",
    "hours": "Mon-Sat, OPD hours",
    "contact": "",
    "description": "Greater Chennai Corporation Urban Primary Health Centre."
  },
  {
    "name": "Teynampet UPHC",
    "category": "health",
    "lat": 13.045,
    "lng": 80.253,
    "address": "40, K.B. Dasan Road, Teynampet, Chennai-18",
    "hours": "Mon-Sat, OPD hours",
    "contact": "",
    "description": "Greater Chennai Corporation Urban Primary Health Centre."
  },
  {
    "name": "Adyar UPHC",
    "category": "health",
    "lat": 12.999,
    "lng": 80.267,
    "address": "Vannandurai Road, Besant Nagar, near Besant Nagar Bus Stand, Chennai-90",
    "hours": "Mon-Sat, OPD hours",
    "contact": "",
    "description": "Greater Chennai Corporation Urban Primary Health Centre."
  },
  {
    "name": "Velachery UPHC",
    "category": "health",
    "lat": 12.975,
    "lng": 80.22,
    "address": "No.2, Seva Nagar, Gandhi Road, Velachery, Chennai-42",
    "hours": "Mon-Sat, OPD hours",
    "contact": "",
    "description": "Greater Chennai Corporation Urban Primary Health Centre."
  },
  {
    "name": "Thiruvanmiyur UPHC",
    "category": "health",
    "lat": 12.982,
    "lng": 80.26,
    "address": "No.2, 8th Street, Kamaraj Nagar, Thiruvanmiyur, Chennai-41",
    "hours": "Mon-Sat, OPD hours",
    "contact": "",
    "description": "Greater Chennai Corporation Urban Primary Health Centre."
  },
  {
    "name": "T. Nagar UPHC",
    "category": "health",
    "lat": 13.04,
    "lng": 80.234,
    "address": "Corporation Hospital, 5, Siva Gnanam Street, T. Nagar, Chennai-17",
    "hours": "Mon-Sat, OPD hours",
    "contact": "",
    "description": "Greater Chennai Corporation Urban Primary Health Centre."
  },
  {
    "name": "Corporation Urban Health Center, Nanjundapuram",
    "category": "health",
    "lat": 11.002,
    "lng": 76.966,
    "address": "Parumal Kovil Street, 22, Nanjundapuram, Coimbatore-641024, Tamil Nadu",
    "hours": "Mon-Sat, OPD hours",
    "contact": "",
    "description": "Coimbatore City Municipal Corporation urban health centre, free of cost services."
  },
  {
    "name": "Urban Primary Health Centre, Kurichi",
    "category": "health",
    "lat": 10.97,
    "lng": 76.98,
    "address": "Amman Nagar, Kurichi, Coimbatore, Tamil Nadu",
    "hours": "Mon-Sat, OPD hours",
    "contact": "",
    "description": "Coimbatore City Municipal Corporation urban primary health centre."
  },
  {
    "name": "Uppilipalayam Urban Health Post",
    "category": "health",
    "lat": 11.018,
    "lng": 77.028,
    "address": "D.No.136, Varadharajapuram Main Road, Near Masakalipalayam Road, Uppilipalayam, Coimbatore-641015",
    "hours": "Mon-Sat, OPD hours",
    "contact": "",
    "description": "One of 20 free urban health posts run by Coimbatore City Municipal Corporation."
  },
  {
    "name": "Aam Aadmi Mohalla Clinic, Timarpur",
    "category": "health",
    "lat": 28.695,
    "lng": 77.223,
    "address": "Timarpur, Delhi",
    "hours": "Mon-Sat 8am-2pm",
    "contact": "",
    "description": "Free primary healthcare, diagnostics, and medicines."
  },
  {
    "name": "Aam Aadmi Mohalla Clinic, Ballimaran",
    "category": "health",
    "lat": 28.652,
    "lng": 77.228,
    "address": "Ballimaran, Old Delhi-110006",
    "hours": "Mon-Sat 8am-2pm",
    "contact": "",
    "description": "Free primary healthcare, diagnostics, and medicines."
  },
  {
    "name": "Aam Aadmi Mohalla Clinic, Madanpur Khadar",
    "category": "health",
    "lat": 28.528,
    "lng": 77.295,
    "address": "Madanpur Khadar, New Delhi",
    "hours": "Mon-Sat 8am-2pm",
    "contact": "",
    "description": "Free primary healthcare, diagnostics, and medicines."
  },
  {
    "name": "Aam Aadmi Mohalla Clinic, Ber Sarai",
    "category": "health",
    "lat": 28.545,
    "lng": 77.19,
    "address": "Ber Sarai, New Delhi",
    "hours": "Mon-Sat 8am-2pm",
    "contact": "",
    "description": "Free primary healthcare, diagnostics, and medicines."
  },
  {
    "name": "Aam Aadmi Mohalla Clinic, Wazirpur",
    "category": "health",
    "lat": 28.698,
    "lng": 77.165,
    "address": "Wazirpur, Delhi",
    "hours": "Mon-Sat 8am-2pm",
    "contact": "",
    "description": "Free primary healthcare, diagnostics, and medicines."
  },
  {
    "name": "Aam Aadmi Mohalla Clinic, Paschim Vihar",
    "category": "health",
    "lat": 28.673,
    "lng": 77.101,
    "address": "Paschim Vihar A2, New Delhi",
    "hours": "Mon-Sat 8am-2pm",
    "contact": "",
    "description": "Free primary healthcare, diagnostics, and medicines."
  },
  {
    "name": "Aam Aadmi Mohalla Clinic, Keshavpuram",
    "category": "health",
    "lat": 28.695,
    "lng": 77.145,
    "address": "Keshavpuram B4, Delhi",
    "hours": "Mon-Sat 8am-2pm",
    "contact": "",
    "description": "Free primary healthcare, diagnostics, and medicines."
  },
  {
    "name": "Aam Aadmi Mohalla Clinic, Rohini Sector 2",
    "category": "health",
    "lat": 28.715,
    "lng": 77.12,
    "address": "Rohini Sector 2, Delhi",
    "hours": "Mon-Sat 8am-2pm",
    "contact": "",
    "description": "Free primary healthcare, diagnostics, and medicines."
  },
  {
    "name": "Aam Aadmi Mohalla Clinic, Rohini Sector 4",
    "category": "health",
    "lat": 28.72,
    "lng": 77.125,
    "address": "Rohini Sector 4, Delhi",
    "hours": "Mon-Sat 8am-2pm",
    "contact": "",
    "description": "Free primary healthcare, diagnostics, and medicines."
  },
  {
    "name": "Aam Aadmi Mohalla Clinic, Pitampura",
    "category": "health",
    "lat": 28.7,
    "lng": 77.13,
    "address": "Pitampura CD Block, Delhi",
    "hours": "Mon-Sat 8am-2pm",
    "contact": "",
    "description": "Free primary healthcare, diagnostics, and medicines."
  },
  {
    "name": "Aam Aadmi Mohalla Clinic, Saraswati Vihar",
    "category": "health",
    "lat": 28.7,
    "lng": 77.14,
    "address": "Saraswati Vihar, Delhi",
    "hours": "Mon-Sat 8am-2pm",
    "contact": "",
    "description": "Free primary healthcare, diagnostics, and medicines."
  },
  {
    "name": "Aam Aadmi Mohalla Clinic, Rani Bagh",
    "category": "health",
    "lat": 28.698,
    "lng": 77.13,
    "address": "Rani Bagh, Delhi",
    "hours": "Mon-Sat 8am-2pm",
    "contact": "",
    "description": "Free primary healthcare, diagnostics, and medicines."
  },
  {
    "name": "Aam Aadmi Mohalla Clinic, Tilak Vihar",
    "category": "health",
    "lat": 28.665,
    "lng": 77.095,
    "address": "Tilak Vihar, Delhi",
    "hours": "Mon-Sat 8am-2pm",
    "contact": "",
    "description": "Free primary healthcare, diagnostics, and medicines."
  },
  {
    "name": "Aam Aadmi Mohalla Clinic, Madipur",
    "category": "health",
    "lat": 28.665,
    "lng": 77.12,
    "address": "Madipur Village, Delhi",
    "hours": "Mon-Sat 8am-2pm",
    "contact": "",
    "description": "Free primary healthcare, diagnostics, and medicines."
  },
  {
    "name": "Aam Aadmi Mohalla Clinic, Kanti Nagar",
    "category": "health",
    "lat": 28.655,
    "lng": 77.29,
    "address": "Kanti Nagar, Delhi",
    "hours": "Mon-Sat 8am-2pm",
    "contact": "",
    "description": "Free primary healthcare, diagnostics, and medicines."
  },
  {
    "name": "Aam Aadmi Mohalla Clinic, Vivek Vihar",
    "category": "health",
    "lat": 28.672,
    "lng": 77.315,
    "address": "Vivek Vihar, Delhi",
    "hours": "Mon-Sat 8am-2pm",
    "contact": "",
    "description": "Free primary healthcare, diagnostics, and medicines."
  },
  {
    "name": "Aam Aadmi Mohalla Clinic, Nand Nagri",
    "category": "health",
    "lat": 28.69,
    "lng": 77.305,
    "address": "Nand Nagri, Delhi",
    "hours": "Mon-Sat 8am-2pm",
    "contact": "",
    "description": "Free primary healthcare, diagnostics, and medicines."
  },
  {
    "name": "Aam Aadmi Mohalla Clinic, Gautampuri",
    "category": "health",
    "lat": 28.61,
    "lng": 77.29,
    "address": "Gautampuri, Delhi",
    "hours": "Mon-Sat 8am-2pm",
    "contact": "",
    "description": "Free primary healthcare, diagnostics, and medicines."
  },
  {
    "name": "Aam Aadmi Mohalla Clinic, Kalyanvas",
    "category": "health",
    "lat": 28.615,
    "lng": 77.295,
    "address": "Kalyanvas, Delhi",
    "hours": "Mon-Sat 8am-2pm",
    "contact": "",
    "description": "Free primary healthcare, diagnostics, and medicines."
  },
  {
    "name": "Aam Aadmi Mohalla Clinic, Azadpur",
    "category": "health",
    "lat": 28.707,
    "lng": 77.175,
    "address": "Amber Tower, Azadpur, Delhi",
    "hours": "Mon-Sat 8am-2pm",
    "contact": "",
    "description": "Free primary healthcare, diagnostics, and medicines."
  },
  {
    "name": "Aam Aadmi Mohalla Clinic, Dilshad Colony",
    "category": "health",
    "lat": 28.678,
    "lng": 77.317,
    "address": "House No. A-170, Dilshad Colony, Delhi-110095",
    "hours": "Mon-Sat 8am-2pm",
    "contact": "",
    "description": "Free primary healthcare, diagnostics, and medicines."
  },
  {
    "name": "Aam Aadmi Mohalla Clinic, Jwala Nagar",
    "category": "health",
    "lat": 28.67,
    "lng": 77.285,
    "address": "Gautam Gali, Jwala Nagar, Delhi-110032",
    "hours": "Mon-Sat 8am-2pm",
    "contact": "",
    "description": "Free primary healthcare, diagnostics, and medicines."
  },
  {
    "name": "Aam Aadmi Mohalla Clinic, Naveen Shahdara",
    "category": "health",
    "lat": 28.675,
    "lng": 77.29,
    "address": "Panchsheel Garden, Naveen Shahdara, Delhi",
    "hours": "Mon-Sat 8am-2pm",
    "contact": "",
    "description": "Free primary healthcare, diagnostics, and medicines."
  },
  {
    "name": "Aam Aadmi Mohalla Clinic, Rohini Sector 3",
    "category": "health",
    "lat": 28.718,
    "lng": 77.115,
    "address": "Pocket 18, Sector 3, Rohini, Delhi",
    "hours": "Mon-Sat 8am-2pm",
    "contact": "",
    "description": "Free primary healthcare, diagnostics, and medicines."
  },
  {
    "name": "Aam Aadmi Mohalla Clinic, Mangolpuri",
    "category": "health",
    "lat": 28.697,
    "lng": 77.085,
    "address": "Mangolpuri Khurd, Delhi",
    "hours": "Mon-Sat 8am-2pm",
    "contact": "",
    "description": "Free primary healthcare, diagnostics, and medicines."
  },
  {
    "name": "Aam Aadmi Mohalla Clinic, Kalyanpuri",
    "category": "health",
    "lat": 28.628,
    "lng": 77.29,
    "address": "Block 19, Kalyanpuri, Delhi",
    "hours": "Mon-Sat 8am-2pm",
    "contact": "",
    "description": "Free primary healthcare, diagnostics, and medicines."
  },
  {
    "name": "Aam Aadmi Mohalla Clinic, Old Anarkali",
    "category": "health",
    "lat": 28.66,
    "lng": 77.22,
    "address": "Old Anarkali, Delhi",
    "hours": "Mon-Sat 8am-2pm",
    "contact": "",
    "description": "Free primary healthcare, diagnostics, and medicines."
  },
  {
    "name": "DUSIB Night Shelter, Delhi Gate",
    "category": "shelter",
    "lat": 28.642,
    "lng": 77.238,
    "address": "Delhi Gate, Delhi",
    "hours": "Open overnight",
    "contact": "",
    "description": "DUSIB-run night shelter; includes a children's drug rehabilitation centre."
  },
  {
    "name": "DUSIB Night Shelter, Katra Maula Bux",
    "category": "shelter",
    "lat": 28.665,
    "lng": 77.215,
    "address": "Katra Maula Bux, Roshanara Road, Delhi",
    "hours": "Open overnight",
    "contact": "",
    "description": "DUSIB-run night shelter for the homeless."
  },
  {
    "name": "DUSIB Night Shelter, Kabool Nagar",
    "category": "shelter",
    "lat": 28.675,
    "lng": 77.29,
    "address": "Kabool Nagar, Shahdara, Delhi",
    "hours": "Open overnight",
    "contact": "",
    "description": "DUSIB-run night shelter for the homeless."
  },
  {
    "name": "DUSIB Night Shelter, Sarai Pipal Thala",
    "category": "shelter",
    "lat": 28.715,
    "lng": 77.17,
    "address": "Sarai Pipal Thala, Adarsh Nagar, Delhi",
    "hours": "Open overnight",
    "contact": "",
    "description": "DUSIB-run night shelter for the homeless."
  },
  {
    "name": "DUSIB Night Shelter, Shahzada Bagh",
    "category": "shelter",
    "lat": 28.665,
    "lng": 77.185,
    "address": "Shahzada Bagh, Delhi",
    "hours": "Open overnight",
    "contact": "",
    "description": "DUSIB-run night shelter for the homeless."
  },
  {
    "name": "DUSIB Night Shelter, S.P. Mukharjee Market",
    "category": "shelter",
    "lat": 28.655,
    "lng": 77.23,
    "address": "S.P. Mukharjee Market, Delhi",
    "hours": "Open overnight",
    "contact": "",
    "description": "DUSIB-run night shelter for the homeless."
  },
  {
    "name": "DUSIB Night Shelter, Lahori Gate",
    "category": "shelter",
    "lat": 28.654,
    "lng": 77.225,
    "address": "Lahori Gate, Delhi",
    "hours": "Open overnight",
    "contact": "",
    "description": "DUSIB-run night shelter for the homeless."
  },
  {
    "name": "DUSIB Night Shelter, Raja Garden",
    "category": "shelter",
    "lat": 28.648,
    "lng": 77.125,
    "address": "Raja Garden, Delhi",
    "hours": "Open overnight",
    "contact": "",
    "description": "DUSIB-run night shelter for the homeless."
  },
  {
    "name": "DUSIB Night Shelter, Nizamuddin Basti",
    "category": "shelter",
    "lat": 28.59,
    "lng": 77.25,
    "address": "Near Hazrat Nizamuddin Dargah, Nizamuddin Basti, Delhi",
    "hours": "Open overnight",
    "contact": "",
    "description": "DUSIB-run night shelter for the homeless."
  },
  {
    "name": "DUSIB Night Shelter, Fatehpuri",
    "category": "shelter",
    "lat": 28.658,
    "lng": 77.227,
    "address": "Old Delhi Railway Station, Fatehpuri, Delhi",
    "hours": "Open overnight",
    "contact": "",
    "description": "DUSIB-run night shelter for the homeless."
  },
  {
    "name": "DUSIB Night Shelter, Jhandewalan Road",
    "category": "shelter",
    "lat": 28.644,
    "lng": 77.2,
    "address": "Jhandewalan Road, Delhi",
    "hours": "Open overnight",
    "contact": "",
    "description": "DUSIB-run night shelter for the homeless."
  },
  {
    "name": "DUSIB Night Shelter, Gali Ravi Dass",
    "category": "shelter",
    "lat": 28.65,
    "lng": 77.22,
    "address": "Gali Ravi Dass, Delhi",
    "hours": "Open overnight",
    "contact": "",
    "description": "DUSIB-run night shelter for the homeless."
  },
  {
    "name": "DUSIB Night Shelter, Nabi Karim",
    "category": "shelter",
    "lat": 28.647,
    "lng": 77.213,
    "address": "Gali Tel Mill, Nabi Karim, Delhi",
    "hours": "Open overnight",
    "contact": "",
    "description": "DUSIB-run night shelter for the homeless."
  },
  {
    "name": "DUSIB Night Shelter, Regharpura (Ladies)",
    "category": "shelter",
    "lat": 28.647,
    "lng": 77.19,
    "address": "Community Hall, Regharpura, Karol Bagh, Delhi",
    "hours": "Open overnight",
    "contact": "",
    "description": "DUSIB-run night shelter reserved for women."
  },
  {
    "name": "DUSIB Night Shelter, Nand Nagari",
    "category": "shelter",
    "lat": 28.69,
    "lng": 77.305,
    "address": "Nand Nagari, Delhi",
    "hours": "Open overnight",
    "contact": "",
    "description": "DUSIB-run night shelter for the homeless."
  },
  {
    "name": "DUSIB Night Shelter, Malka Ganj",
    "category": "shelter",
    "lat": 28.682,
    "lng": 77.21,
    "address": "Kabir Basti, Malka Ganj, Delhi",
    "hours": "Open overnight",
    "contact": "",
    "description": "DUSIB-run night shelter for the homeless."
  },
  {
    "name": "DUSIB Night Shelter, Sarai Phoosh",
    "category": "shelter",
    "lat": 28.652,
    "lng": 77.228,
    "address": "Sarai Phoosh, Delhi",
    "hours": "Open overnight",
    "contact": "",
    "description": "DUSIB-run night shelter for the homeless."
  },