[
  { "name": "Aam Aadmi Mohalla Clinic, Malviya Nagar", "category": "health", "lat": 28.5355, "lng": 77.2065, "address": "G 4/1, Block G5, Malviya Nagar, New Delhi-110017", "hours": "Mon-Sat 8am-2pm", "contact": "", "description": "Free consultations, tests, and medicines at a government primary health centre." },
  { "name": "Aam Aadmi Mohalla Clinic, Janakpuri D-Block", "category": "health", "lat": 28.6219, "lng": 77.0878, "address": "Govt. Co-ed Sr. Sec. School, Janakpuri D-Block, New Delhi-110058", "hours": "Mon-Sat 8am-2pm", "contact": "", "description": "Free primary healthcare, diagnostics, and medicines." },
  { "name": "Aam Aadmi Mohalla Clinic, Dwarka Sector 14", "category": "health", "lat": 28.5765, "lng": 77.0402, "address": "Govt. Sr. Sec. School, Dwarka Sector 14, New Delhi-110078", "hours": "Mon-Sat 8am-2pm", "contact": "", "description": "Free primary healthcare, diagnostics, and medicines." },
  { "name": "Aam Aadmi Mohalla Clinic, Rohini Sector 18", "category": "health", "lat": 28.7350, "lng": 77.1250, "address": "Rohini Sector 18, New Delhi-110089", "hours": "Mon-Sat 8am-2pm", "contact": "", "description": "Free primary healthcare, diagnostics, and medicines." },
  { "name": "Indian Red Cross Society Blood Centre", "category": "health", "lat": 28.6259, "lng": 77.2183, "address": "1, Red Cross Road, New Delhi-110001", "hours": "Mon-Sat 9am-7pm (issue counter open 24/7)", "contact": "011-23711551", "description": "Free blood for government-hospital, thalassemia, and haemophilia patients." },
  { "name": "Lok Nayak Hospital Blood Bank", "category": "health", "lat": 28.6417, "lng": 77.2373, "address": "Jawaharlal Nehru Marg, New Delhi-110002", "hours": "24 hours", "contact": "011-23231023", "description": "Government hospital blood bank, regional blood transfusion centre." },
  { "name": "AIIMS Blood Bank", "category": "health", "lat": 28.5672, "lng": 77.2100, "address": "Ansari Nagar, New Delhi-110029", "hours": "24 hours", "contact": "011-26594874", "description": "Government blood transfusion centre serving the AIIMS campus and referrals." },

  { "name": "SevaRoots Trust — Annamrita Kitchen", "category": "food", "lat": 28.6519, "lng": 77.1275, "address": "Ramesh Nagar, West Delhi-110015", "hours": "Daily 12pm-3pm", "contact": "", "description": "Free home-style meals for children, seniors, and anyone in need." },
  { "name": "Delhi Langar Seva Society", "category": "food", "lat": 28.5680, "lng": 77.2090, "address": "Outside AIIMS & Safdarjung Hospital OPD gates, New Delhi-110029", "hours": "Daily, lunch hours", "contact": "", "description": "Free meals for out-of-town patients and attendants outside major hospitals." },
  { "name": "Uday Foundation Meal Support", "category": "food", "lat": 28.5685, "lng": 77.2020, "address": "Near Safdarjung Hospital, New Delhi-110029", "hours": "Daily", "contact": "", "description": "Free nutritious meals for underprivileged hospital patients and families." },
  { "name": "MCKS Food for the Hungry Foundation", "category": "food", "lat": 28.6100, "lng": 77.2300, "address": "Central Delhi-110002", "hours": "Varies by drive", "contact": "9873800500", "description": "Community kitchens and food-for-skills programs for the urban poor." },
  { "name": "Community Kitchen, Dwarka", "category": "food", "lat": 28.5921, "lng": 77.0460, "address": "Dwarka, New Delhi-110075", "hours": "Daily", "contact": "", "description": "Free community kitchen and food distribution centre for local residents." },

  { "name": "Water ATM, Kirti Nagar Metro Station", "category": "water", "lat": 28.6535, "lng": 77.1467, "address": "5/35, Kirti Nagar, New Delhi-110015", "hours": "24 hours", "contact": "", "description": "RO-purified water dispensed via card at low cost (Rs. 0.30/litre)." },
  { "name": "Water ATM, Dwarka Sector 3", "category": "water", "lat": 28.5921, "lng": 77.0590, "address": "Dwarka Sector 3, New Delhi-110078", "hours": "24 hours", "contact": "", "description": "Delhi Jal Board RO water ATM for the local settlement." },
  { "name": "RO Plant & Water ATM, Savda Ghevra", "category": "water", "lat": 28.7550, "lng": 77.0350, "address": "Savda Ghevra Resettlement Colony, New Delhi-110041", "hours": "24 hours", "contact": "", "description": "One of Delhi's first water ATM installations, serving resettlement colony residents." },
  { "name": "Water ATM, Khajan Basti, Mayapuri", "category": "water", "lat": 28.6280, "lng": 77.1230, "address": "Mayapuri Phase II, Khajan Basti, New Delhi-110064", "hours": "24 hours", "contact": "", "description": "Free/low-cost RO water via Water-ATM card, 20 litres/day per household." },
  { "name": "Water Kiosk, Aurobindo Marg (near AIIMS)", "category": "water", "lat": 28.5678, "lng": 77.2075, "address": "Aurobindo Marg, opp. Safdarjung Hospital, New Delhi-110029", "hours": "24 hours", "contact": "", "description": "Public water kiosk serving patients, attendants, and commuters." },
  { "name": "Water ATM, Holambi Kalan", "category": "water", "lat": 28.7940, "lng": 77.1180, "address": "Holambi Kalan, New Delhi-110082", "hours": "24 hours", "contact": "", "description": "Delhi Jal Board RO water ATM for underserved settlement." },

  { "name": "DUSIB Night Shelter, Chandni Chowk", "category": "shelter", "lat": 28.6505, "lng": 77.2320, "address": "Gali Shankar, Behind Kalan Masjid, Turkman Gate, Chandni Chowk, Delhi-110006", "hours": "Open 24 hours", "contact": "1800-11-8090", "description": "Government-run night shelter for homeless individuals." },
  { "name": "Motia Khan Shelter (run by AAA)", "category": "shelter", "lat": 28.6470, "lng": 77.2020, "address": "63B, Rani Jhansi Rd, Motia Khan, Sadar Bazaar, New Delhi-110055", "hours": "Open 24 hours", "contact": "", "description": "Shelter and health program run by Aashray Adhikar Abhiyan for the homeless." },
  { "name": "Prerna Night Shelter, AIIMS", "category": "shelter", "lat": 28.5675, "lng": 77.2085, "address": "AIIMS Campus, Ansari Nagar, New Delhi-110029", "hours": "Open 24 hours", "contact": "", "description": "Shelter for homeless patients and attendants visiting AIIMS for treatment." },
  { "name": "DUSIB Night Shelter, Connaught Place", "category": "shelter", "lat": 28.6260, "lng": 77.2100, "address": "Near Bangla Saheb Gurudwara, DIZ Area, Connaught Place, New Delhi-110001", "hours": "Open 24 hours", "contact": "1800-11-8090", "description": "Government-run night shelter in central Delhi." },

  { "name": "Delhi Public Library — Central Library", "category": "education", "lat": 28.6600, "lng": 77.2280, "address": "S.P. Mukherjee Marg, opp. Old Delhi Railway Station, Delhi-110006", "hours": "Tue-Sun 9am-8pm", "contact": "", "description": "Free public library membership, books, and reading rooms." },
  { "name": "Delhi Public Library — North Zone", "category": "education", "lat": 28.6519, "lng": 77.1907, "address": "5/56, D.B. Gupta Road, Karol Bagh, New Delhi-110005", "hours": "Daily 12:30pm-7pm", "contact": "011-23521372", "description": "Free public library branch with reading rooms and lending." },
  { "name": "Delhi Public Library — Ashok Vihar Branch", "category": "education", "lat": 28.6950, "lng": 77.1830, "address": "Opp. Plot A-69, near Shree Ram Global School, Ashok Vihar, Delhi-110052", "hours": "Daily", "contact": "", "description": "Neighbourhood library branch, free membership." },
  { "name": "Salaam Baalak Trust — Contact Centre", "category": "education", "lat": 28.6430, "lng": 77.2210, "address": "Near New Delhi Railway Station, New Delhi-110001", "hours": "Mon-Sat 10am-5pm", "contact": "", "description": "Education, shelter, and support programs for street and working children." },
  { "name": "SK Children Foundation Learning Centre", "category": "education", "lat": 28.6180, "lng": 77.0850, "address": "Babewala Park, B-1 Block, Janakpuri, New Delhi-110058", "hours": "7 days/week, evening classes", "contact": "9999800689", "description": "Free tuition for underprivileged children, classes I-XII." },
  { "name": "Shanti Sahyog Learning Centre", "category": "education", "lat": 28.5390, "lng": 77.2600, "address": "Kalkaji / Govindpuri, New Delhi-110019", "hours": "Weekdays", "contact": "", "description": "Free education and skill-development programs for slum communities." },
  { "name": "Eduquest Tuition Centre, Rohini", "category": "education", "lat": 28.7100, "lng": 77.1200, "address": "Rohini, North-West Delhi-110085", "hours": "Weekdays, afternoon", "contact": "", "description": "Free tuition support and school-readiness programs for underserved children." },

  { "name": "Civil Hospital, Gurugram", "category": "health", "lat": 28.4771, "lng": 76.9975, "address": "Basai Road, Sector 10, Gurugram, Haryana 122001", "hours": "24 hours", "contact": "0124-2333102", "description": "200-bed government district hospital; free treatment under Mukhyamantri Muft Ilaz Yojana for Haryana residents." },
  { "name": "General Hospital Blood Bank, Gurugram", "category": "health", "lat": 28.4762, "lng": 76.9968, "address": "Near Bus Stand, Opposite MCG, Gurugram, Haryana 122001", "hours": "24 hours", "contact": "0124-2310102", "description": "Government blood bank attached to Gurugram's civil hospital network." },
  { "name": "Gurudwara Sri Guru Singh Sabha, South City", "category": "food", "lat": 28.4360, "lng": 77.0480, "address": "Near Unitech House, Block I, South City I, Sector 41, Gurugram, Haryana 122001", "hours": "Daily, langar hours vary", "contact": "", "description": "Free community kitchen (langar) open to all, regardless of faith." },
  { "name": "Gurudwara, Civil Lines", "category": "food", "lat": 28.4680, "lng": 77.0270, "address": "Opp. Kamla Nehru Park, Civil Lines, Gurugram, Haryana", "hours": "Daily, langar hours vary", "contact": "", "description": "One of Gurugram's oldest gurudwaras (50+ years); free community meals daily." },
  { "name": "MCG Night Shelter, Rajiv Chowk", "category": "shelter", "lat": 28.4645, "lng": 77.0313, "address": "Rajiv Chowk, Gurugram, Haryana", "hours": "Open overnight", "contact": "", "description": "Municipal Corporation of Gurugram (MCG) rain basera for the homeless." },
  { "name": "MCG Night Shelter, Sheetla Mata Mandir", "category": "shelter", "lat": 28.4540, "lng": 77.0180, "address": "Near Sheetla Mata Mandir, Gurugram, Haryana", "hours": "Open overnight", "contact": "", "description": "Municipal Corporation of Gurugram (MCG) rain basera for the homeless." },
  { "name": "The Coforge Public Library, Gurugram", "category": "education", "lat": 28.4090, "lng": 77.0480, "address": "Ground Floor, Bestech Business Center, Sohna Road, Sector 48, Gurugram, Haryana", "hours": "9am-8pm, 7 days a week", "contact": "", "description": "Free public library with 16,000+ books; open to all ages, wheelchair accessible." },
  { "name": "Sahitya Kendra Library", "category": "education", "lat": 28.4690, "lng": 77.0350, "address": "480/4, Acharyapuri, Gurugram District, Gurugram, Haryana 122001", "hours": "Daily", "contact": "", "description": "Long-standing community library serving Gurugram residents." },

  { "name": "District Combined Hospital, Sector 30, Noida", "category": "health", "lat": 28.5730, "lng": 77.3260, "address": "Sector 30, Noida, Gautam Buddh Nagar, Uttar Pradesh 201301", "hours": "24 hours", "contact": "", "description": "240-bed government multi-speciality hospital serving Noida residents." },
  { "name": "Gurudwara Sri Guru Singh Sabha, Sector 18", "category": "food", "lat": 28.5700, "lng": 77.3260, "address": "Near Wave Cinema, Sector 18, Noida, Uttar Pradesh", "hours": "Daily, langar hours vary", "contact": "", "description": "Free community kitchen (langar); also offers free music and turban-tying classes." },
  { "name": "Rain Basera, Noida Stadium", "category": "shelter", "lat": 28.5895, "lng": 77.3175, "address": "Near Gate 7, Noida Stadium, Sector 21A, Noida, Uttar Pradesh", "hours": "Open overnight, winter season", "contact": "", "description": "Noida Authority winter night shelter, capacity ~150, with drinking water and toilets." },
  { "name": "Water ATM, Sector 37, Noida", "category": "water", "lat": 28.5560, "lng": 77.3480, "address": "Sector 37, Noida, Uttar Pradesh", "hours": "8am-8pm", "contact": "", "description": "Noida Authority public water ATM offering clean, chilled drinking water." },
  { "name": "Water ATM, Sector 45, Noida", "category": "water", "lat": 28.5490, "lng": 77.3830, "address": "Sector 45, Noida, Uttar Pradesh", "hours": "8am-8pm", "contact": "", "description": "Noida Authority public water ATM offering clean, chilled drinking water." },
  { "name": "The Coforge Public Library, Noida", "category": "education", "lat": 28.5920, "lng": 77.3610, "address": "B-25/1-4, First Floor, Sector 59, Noida, Uttar Pradesh 201301", "hours": "9am-8pm, 7 days a week", "contact": "+91 9311861889", "description": "Free public library, 10,000+ books, digital access, open to all ages." },

  { "name": "MMG District Hospital, Ghaziabad", "category": "health", "lat": 28.6690, "lng": 77.4260, "address": "Near Ghanta Ghar, G.T. Road, Ghaziabad, Uttar Pradesh 201001", "hours": "24 hours", "contact": "0120-2730038", "description": "Government district hospital serving Ghaziabad." },
  { "name": "District Combined Hospital, Sanjay Nagar", "category": "health", "lat": 28.6890, "lng": 77.4520, "address": "Sector 23, Rajnagar, Sanjay Nagar, Ghaziabad, Uttar Pradesh 201020", "hours": "24 hours", "contact": "0120-2790400", "description": "Government combined hospital serving Ghaziabad residents." },
  { "name": "Ghaziabad Blood Bank, Maliwara Chowk", "category": "health", "lat": 28.6670, "lng": 77.4310, "address": "Maliwara Chowk, Ghaziabad, Uttar Pradesh", "hours": "24 hours", "contact": "0120-2794762", "description": "Public blood bank serving Ghaziabad district." },
  { "name": "Gurudwara Guru Nanak Simran Sabha", "category": "food", "lat": 28.6750, "lng": 77.4380, "address": "Bhoor Bharat Nagar, Ghaziabad, Uttar Pradesh", "hours": "Daily, langar hours vary", "contact": "", "description": "One of Ghaziabad's oldest gurudwaras; free community kitchen open to all." },

  { "name": "B.K. Hospital, Faridabad", "category": "health", "lat": 28.3860, "lng": 77.3080, "address": "Opp. Dusshera Ground, BK Chowk, Faridabad, Haryana 121001", "hours": "24 hours", "contact": "", "description": "Government hospital serving Faridabad district." },
  { "name": "Civil Hospital, Ballabgarh", "category": "health", "lat": 28.3390, "lng": 77.3260, "address": "Hospital Road, Near City Park, Ballabgarh, Faridabad, Haryana", "hours": "24 hours", "contact": "0129-2210379", "description": "Government hospital serving Ballabgarh and southern Faridabad." },
  { "name": "Gurudwara Singh Sabha, Faridabad", "category": "food", "lat": 28.4010, "lng": 77.3041, "address": "Sector area, Faridabad, Haryana", "hours": "Daily, langar hours vary", "contact": "", "description": "Free community kitchen (langar) open to all." },
  { "name": "Gurudwara, Sector 29, Faridabad", "category": "food", "lat": 28.4344, "lng": 77.3241, "address": "Sector 29, Faridabad, Haryana", "hours": "Daily, langar hours vary", "contact": "", "description": "Neighbourhood gurudwara offering free community meals." }
]
